{
"type": "FeatureCollection",
"name": "beauty_supply_stores",
"crs": { "type": "name", "properties": { "name": "urn:ogc:def:crs:OGC:1.3:CRS84" } },
"features": [
{ "type": "Feature", "properties": { "name": "Ulta Beauty", "address": "1210 Bridford Parkway", "city": "Greensboro", "state": "NC", "zip": "27407", "lat": 36.0571751, "lon": -79.9071522, "category": "cosmetics", "store_id": 1 }, "geometry": { "type": "Point", "coordinates": [ -79.9071522, 36.0571751 ] } },
{ "type": "Feature", "properties": { "name": "Sally Beauty", "address": "1216 Bridford Parkway", "city": "Greensboro", "state": "NC", "zip": "", "lat": 36.0568473, "lon": -79.903949, "category": "hairdresser_supply", "store_id": 2 }, "geometry": { "type": "Point", "coordinates": [ -79.903949, 36.0568473 ] } },
{ "type": "Feature", "properties": { "name": "Ulta Beauty", "address": "3350 West Friendly Avenue", "city": "greensboro", "state": "NC", "zip": "27410", "lat": 36.0881797, "lon": -79.8398386, "category": "beauty", "store_id": 3 }, "geometry": { "type": "Point", "coordinates": [ -79.8398386, 36.0881797 ] } },
{ "type": "Feature", "properties": { "name": "Merle Norman", "address": "3741 Battleground Avenue", "city": "greensboro", "state": "NC", "zip": "", "lat": 36.1353764, "lon": -79.8601815, "category": "beauty", "store_id": 4 }, "geometry": { "type": "Point", "coordinates": [ -79.8601815, 36.1353764 ] } },
{ "type": "Feature", "properties": { "name": "iBeauty Supply", "address": "", "city": "greensboro", "state": "NC", "zip": "", "lat": 36.0388297, "lon": -79.8521011, "category": "beauty", "store_id": 5 }, "geometry": { "type": "Point", "coordinates": [ -79.8521011, 36.0388297 ] } },
{ "type": "Feature", "properties": { "name": "Bath & Body Works", "address": "", "city": "greensboro", "state": "NC", "zip": "", "lat": 36.0392768, "lon": -79.8384209, "category": "cosmetics", "store_id": 6 }, "geometry": { "type": "Point", "coordinates": [ -79.8384209, 36.0392768 ] } },
{ "type": "Feature", "properties": { "name": "Sheree's Natural Cosmetics", "address": "3008 Northline Avenue", "city": "greensboro", "state": "NC", "zip": "", "lat": 36.0879207, "lon": -79.8293488, "category": "cosmetics", "store_id": 7 }, "geometry": { "type": "Point", "coordinates": [ -79.8293488, 36.0879207 ] } },
{ "type": "Feature", "properties": { "name": "Sephora", "address": "803 Friendly Center Road", "city": "greensboro", "state": "NC", "zip": "", "lat": 36.0868919, "lon": -79.830796, "category": "cosmetics", "store_id": 8 }, "geometry": { "type": "Point", "coordinates": [ -79.830796, 36.0868919 ] } },
{ "type": "Feature", "properties": { "name": "Bath & Body Works", "address": "801 Friendly Center Road", "city": "Greensboro", "state": "NC", "zip": "27408", "lat": 36.0866299, "lon": -79.8309445, "category": "cosmetics", "store_id": 9 }, "geometry": { "type": "Point", "coordinates": [ -79.8309445, 36.0866299 ] } },
{ "type": "Feature", "properties": { "name": "Beauty Supply", "address": "", "city": "greensboro", "state": "NC", "zip": "", "lat": 36.0516583, "lon": -79.8054888, "category": "beauty", "store_id": 10 }, "geometry": { "type": "Point", "coordinates": [ -79.8054888, 36.0516583 ] } },
{ "type": "Feature", "properties": { "name": "Beauty Giant", "address": "", "city": "greensboro", "state": "NC", "zip": "", "lat": 36.0222178, "lon": -79.8456909, "category": "hairdresser_supply", "store_id": 11 }, "geometry": { "type": "Point", "coordinates": [ -79.8456909, 36.0222178 ] } },
{ "type": "Feature", "properties": { "name": "Bath & Body Works", "address": "1606 Highwoods Boulevard", "city": "greensboro", "state": "NC", "zip": "", "lat": 36.1121493, "lon": -79.8779382, "category": "cosmetics", "store_id": 12 }, "geometry": { "type": "Point", "coordinates": [ -79.8779382, 36.1121493 ] } },
{ "type": "Feature", "properties": { "name": "EZ Hair Beauty Supply", "address": "", "city": "greensboro", "state": "NC", "zip": "", "lat": 36.0497793, "lon": -79.8355608, "category": "hairdresser_supply", "store_id": 13 }, "geometry": { "type": "Point", "coordinates": [ -79.8355608, 36.0497793 ] } },
{ "type": "Feature", "properties": { "name": "Buff City Soap", "address": "3334 West Friendly Avenue", "city": "greensboro", "state": "NC", "zip": "", "lat": 36.0872697, "lon": -79.8389445, "category": "cosmetics", "store_id": 14 }, "geometry": { "type": "Point", "coordinates": [ -79.8389445, 36.087269699999986 ] } },
{ "type": "Feature", "properties": { "name": "Sally Beauty", "address": "", "city": "greensboro", "state": "NC", "zip": "", "lat": 36.0031696, "lon": -79.797177, "category": "hairdresser_supply", "store_id": 15 }, "geometry": { "type": "Point", "coordinates": [ -79.797177, 36.0031696 ] } },
{ "type": "Feature", "properties": { "name": "Lush", "address": "3334 West Friendly Avenue", "city": "greensboro", "state": "NC", "zip": "", "lat": 36.0868481, "lon": -79.8386155, "category": "cosmetics", "store_id": 16 }, "geometry": { "type": "Point", "coordinates": [ -79.8386155, 36.0868481 ] } },
{ "type": "Feature", "properties": { "name": "Sally Beauty", "address": "2633 Lawndale Drive", "city": "greensboro", "state": "NC", "zip": "", "lat": 36.1026424, "lon": -79.8210806, "category": "hairdresser_supply", "store_id": 17 }, "geometry": { "type": "Point", "coordinates": [ -79.8210806, 36.1026424 ] } },
{ "type": "Feature", "properties": { "name": "Bath & Body Works", "address": "", "city": "greensboro", "state": "NC", "zip": "", "lat": 36.058784, "lon": -79.9054457, "category": "cosmetics", "store_id": 18 }, "geometry": { "type": "Point", "coordinates": [ -79.9054457, 36.058784 ] } },
{ "type": "Feature", "properties": { "name": "Sephora", "address": "1210 Bridford Parkway", "city": "greensboro", "state": "NC", "zip": "", "lat": 36.0582169, "lon": -79.9073459, "category": "cosmetics", "store_id": 19 }, "geometry": { "type": "Point", "coordinates": [ -79.9073459, 36.058216899999984 ] } },
{ "type": "Feature", "properties": { "name": "Kima Beauty Supply", "address": "", "city": "greensboro", "state": "NC", "zip": "", "lat": 36.1139576, "lon": -79.8361821, "category": "beauty", "store_id": 20 }, "geometry": { "type": "Point", "coordinates": [ -79.8361821, 36.1139576 ] } },
{ "type": "Feature", "properties": { "name": "Charm Beauty Supply", "address": "4645 West Market Street", "city": "greensboro", "state": "NC", "zip": "", "lat": 36.068664, "lon": -79.8661792, "category": "beauty", "store_id": 21 }, "geometry": { "type": "Point", "coordinates": [ -79.8661792, 36.068664 ] } },
{ "type": "Feature", "properties": { "name": "Twin's Beauty Supply", "address": "4616 West Market Street", "city": "greensboro", "state": "NC", "zip": "", "lat": 36.07144, "lon": -79.8635157, "category": "beauty", "store_id": 22 }, "geometry": { "type": "Point", "coordinates": [ -79.8635157, 36.07144 ] } },
{ "type": "Feature", "properties": { "name": "Beauty Supply Outlet", "address": "932 Summit Avenue", "city": "greensboro", "state": "NC", "zip": "", "lat": 36.0844473, "lon": -79.7761088, "category": "beauty", "store_id": 23 }, "geometry": { "type": "Point", "coordinates": [ -79.7761088, 36.0844473 ] } },
{ "type": "Feature", "properties": { "name": "Luxe Fragrance Bar", "address": "219 Southside Square", "city": "greensboro", "state": "NC", "zip": "", "lat": 36.0657612, "lon": -79.7876587, "category": "perfumery", "store_id": 24 }, "geometry": { "type": "Point", "coordinates": [ -79.7876587, 36.0657612 ] } }
]
}
