{
"type": "FeatureCollection",
"name": "beauty_supply_stores",
"crs": { "type": "name", "properties": { "name": "urn:ogc:def:crs:OGC:1.3:CRS84" } },
"features": [
{ "type": "Feature", "properties": { "name": "bluemercury", "address": "131 North Main Street", "city": "Greenville", "state": "NC", "zip": "29601", "lat": 34.8524382, "lon": -82.3984941, "category": "cosmetics", "store_id": 1 }, "geometry": { "type": "Point", "coordinates": [ -82.3984941, 34.8524382 ] } },
{ "type": "Feature", "properties": { "name": "Merle Norman", "address": "2537 North Pleasantburg Drive", "city": "Greenville", "state": "SC", "zip": "29609", "lat": 34.8885922, "lon": -82.3839285, "category": "cosmetics", "store_id": 2 }, "geometry": { "type": "Point", "coordinates": [ -82.3839285, 34.8885922 ] } },
{ "type": "Feature", "properties": { "name": "Sally Beauty", "address": "159 Rolling Hills Circle", "city": "Easley", "state": "SC", "zip": "29640", "lat": 34.8285993, "lon": -82.5472233, "category": "hairdresser_supply", "store_id": 3 }, "geometry": { "type": "Point", "coordinates": [ -82.5472233, 34.8285993 ] } },
{ "type": "Feature", "properties": { "name": "Ulta Beauty", "address": "1800 East Franklin Street", "city": "Chapel Hill", "state": "NC", "zip": "27514", "lat": 35.9369481, "lon": -79.0245019, "category": "cosmetics", "store_id": 4 }, "geometry": { "type": "Point", "coordinates": [ -79.0245019, 35.9369481 ] } },
{ "type": "Feature", "properties": { "name": "Sally Beauty", "address": "1051 Beaver Creek Commons Drive", "city": "Apex", "state": "NC", "zip": "27502-3918", "lat": 35.7440506, "lon": -78.8729995, "category": "hairdresser_supply", "store_id": 5 }, "geometry": { "type": "Point", "coordinates": [ -78.8729995, 35.7440506 ] } },
{ "type": "Feature", "properties": { "name": "Inspirational You Beauty Box", "address": "", "city": "", "state": "NC", "zip": "", "lat": 35.5074579, "lon": -78.3163231, "category": "hairdresser_supply", "store_id": 6 }, "geometry": { "type": "Point", "coordinates": [ -78.3163231, 35.5074579 ] } },
{ "type": "Feature", "properties": { "name": "Bath & Body Works", "address": "1025 Outlet Center Drive", "city": "Smithfield", "state": "NC", "zip": "27577", "lat": 35.509685, "lon": -78.3167611, "category": "cosmetics", "store_id": 7 }, "geometry": { "type": "Point", "coordinates": [ -78.3167611, 35.509685 ] } },
{ "type": "Feature", "properties": { "name": "Perfumania", "address": "1025 Outlet Center Drive", "city": "Smithfield", "state": "NC", "zip": "27577", "lat": 35.5097323, "lon": -78.3166602, "category": "perfumery", "store_id": 8 }, "geometry": { "type": "Point", "coordinates": [ -78.316660200000015, 35.5097323 ] } },
{ "type": "Feature", "properties": { "name": "Perfume Outlet", "address": "", "city": "", "state": "NC", "zip": "", "lat": 35.5098362, "lon": -78.3164387, "category": "perfumery", "store_id": 9 }, "geometry": { "type": "Point", "coordinates": [ -78.3164387, 35.5098362 ] } },
{ "type": "Feature", "properties": { "name": "Bath & Body Works", "address": "", "city": "", "state": "NC", "zip": "", "lat": 35.9277448, "lon": -79.0273539, "category": "cosmetics", "store_id": 10 }, "geometry": { "type": "Point", "coordinates": [ -79.0273539, 35.9277448 ] } },
{ "type": "Feature", "properties": { "name": "Sally Beauty", "address": "", "city": "", "state": "NC", "zip": "", "lat": 35.5783072, "lon": -77.3833852, "category": "hairdresser_supply", "store_id": 11 }, "geometry": { "type": "Point", "coordinates": [ -77.3833852, 35.5783072 ] } },
{ "type": "Feature", "properties": { "name": "Ulta Beauty", "address": "1210 Bridford Parkway", "city": "Greensboro", "state": "NC", "zip": "27407", "lat": 36.0571751, "lon": -79.9071522, "category": "cosmetics", "store_id": 12 }, "geometry": { "type": "Point", "coordinates": [ -79.9071522, 36.0571751 ] } },
{ "type": "Feature", "properties": { "name": "Ulta Beauty", "address": "1506 W O Ezell Boulevard", "city": "Spartanburg", "state": "SC", "zip": "29301", "lat": 34.9379835, "lon": -81.9888355, "category": "cosmetics", "store_id": 13 }, "geometry": { "type": "Point", "coordinates": [ -81.9888355, 34.9379835 ] } },
{ "type": "Feature", "properties": { "name": "Sally Beauty", "address": "30 Orchard Park Drive", "city": "Greenville", "state": "SC", "zip": "29615", "lat": 34.8554398, "lon": -82.3340611, "category": "hairdresser_supply", "store_id": 14 }, "geometry": { "type": "Point", "coordinates": [ -82.3340611, 34.8554398 ] } },
{ "type": "Feature", "properties": { "name": "Merle Norman", "address": "402 West Fleming Drive", "city": "Morganton", "state": "NC", "zip": "28655", "lat": 35.7350517, "lon": -81.6845071, "category": "cosmetics", "store_id": 15 }, "geometry": { "type": "Point", "coordinates": [ -81.6845071, 35.7350517 ] } },
{ "type": "Feature", "properties": { "name": "Bath & Body Works", "address": "", "city": "", "state": "NC", "zip": "", "lat": 34.9887442, "lon": -78.3505988, "category": "cosmetics", "store_id": 16 }, "geometry": { "type": "Point", "coordinates": [ -78.3505988, 34.9887442 ] } },
{ "type": "Feature", "properties": { "name": "Bath & Body Works", "address": "", "city": "", "state": "NC", "zip": "", "lat": 33.7843998, "lon": -78.774225, "category": "cosmetics", "store_id": 17 }, "geometry": { "type": "Point", "coordinates": [ -78.774225, 33.78439980000001 ] } },
{ "type": "Feature", "properties": { "name": "Fragrance Outlet", "address": "", "city": "", "state": "NC", "zip": "", "lat": 33.7846037, "lon": -78.7736433, "category": "perfumery", "store_id": 18 }, "geometry": { "type": "Point", "coordinates": [ -78.7736433, 33.7846037 ] } },
{ "type": "Feature", "properties": { "name": "bareMinerals", "address": "", "city": "", "state": "NC", "zip": "", "lat": 33.7842328, "lon": -78.7741709, "category": "cosmetics", "store_id": 19 }, "geometry": { "type": "Point", "coordinates": [ -78.7741709, 33.7842328 ] } },
{ "type": "Feature", "properties": { "name": "Bath & Body Works", "address": "", "city": "", "state": "NC", "zip": "", "lat": 33.7924785, "lon": -78.7677204, "category": "cosmetics", "store_id": 20 }, "geometry": { "type": "Point", "coordinates": [ -78.7677204, 33.7924785 ] } },
{ "type": "Feature", "properties": { "name": "Bath & Body Works", "address": "1125 Woodruff Road", "city": "Greenville", "state": "NC", "zip": "29607", "lat": 34.8288655, "lon": -82.2975677, "category": "cosmetics", "store_id": 21 }, "geometry": { "type": "Point", "coordinates": [ -82.2975677, 34.8288655 ] } },
{ "type": "Feature", "properties": { "name": "H&Y Beauty Supply", "address": "", "city": "", "state": "NC", "zip": "", "lat": 33.8804651, "lon": -79.757526, "category": "beauty", "store_id": 22 }, "geometry": { "type": "Point", "coordinates": [ -79.757526, 33.8804651 ] } },
{ "type": "Feature", "properties": { "name": "Sally Beauty", "address": "", "city": "", "state": "NC", "zip": "", "lat": 35.9261853, "lon": -80.5891501, "category": "hairdresser_supply", "store_id": 23 }, "geometry": { "type": "Point", "coordinates": [ -80.5891501, 35.9261853 ] } },
{ "type": "Feature", "properties": { "name": "Sally Beauty", "address": "", "city": "", "state": "NC", "zip": "", "lat": 35.6507494, "lon": -80.4611281, "category": "hairdresser_supply", "store_id": 24 }, "geometry": { "type": "Point", "coordinates": [ -80.4611281, 35.6507494 ] } },
{ "type": "Feature", "properties": { "name": "Sally Beauty", "address": "259 Premier Boulevard", "city": "Roanoke Rapids", "state": "NC", "zip": "27870", "lat": 36.4271757, "lon": -77.6341166, "category": "hairdresser_supply", "store_id": 25 }, "geometry": { "type": "Point", "coordinates": [ -77.6341166, 36.4271757 ] } },
{ "type": "Feature", "properties": { "name": "Aveda", "address": "", "city": "", "state": "NC", "zip": "", "lat": 35.1456417, "lon": -80.8252851, "category": "cosmetics", "store_id": 26 }, "geometry": { "type": "Point", "coordinates": [ -80.8252851, 35.1456417 ] } },
{ "type": "Feature", "properties": { "name": "The Body Shop", "address": "4400 sharon road", "city": "charlotte", "state": "nc", "zip": "28210", "lat": 35.1522768, "lon": -80.8311783, "category": "cosmetics", "store_id": 27 }, "geometry": { "type": "Point", "coordinates": [ -80.8311783, 35.15227680000001 ] } },
{ "type": "Feature", "properties": { "name": "Aveda", "address": "4400 sharon road", "city": "charlotte", "state": "nc", "zip": "28210", "lat": 35.152466, "lon": -80.83229, "category": "cosmetics", "store_id": 28 }, "geometry": { "type": "Point", "coordinates": [ -80.83229, 35.152466 ] } },
{ "type": "Feature", "properties": { "name": "Lush", "address": "4400 sharon road", "city": "charlotte", "state": "nc", "zip": "28210", "lat": 35.1525314, "lon": -80.8322903, "category": "cosmetics", "store_id": 29 }, "geometry": { "type": "Point", "coordinates": [ -80.8322903, 35.1525314 ] } },
{ "type": "Feature", "properties": { "name": "Bath & Body Works", "address": "4400 sharon road", "city": "charlotte", "state": "nc", "zip": "28210", "lat": 35.1527538, "lon": -80.8321237, "category": "cosmetics", "store_id": 30 }, "geometry": { "type": "Point", "coordinates": [ -80.8321237, 35.1527538 ] } },
{ "type": "Feature", "properties": { "name": "Origins", "address": "4400 sharon road", "city": "charlotte", "state": "nc", "zip": "28210", "lat": 35.1526048, "lon": -80.8326293, "category": "cosmetics", "store_id": 31 }, "geometry": { "type": "Point", "coordinates": [ -80.8326293, 35.1526048 ] } },
{ "type": "Feature", "properties": { "name": "L'Occitane", "address": "4400 sharon road", "city": "charlotte", "state": "nc", "zip": "28210", "lat": 35.152154, "lon": -80.8327915, "category": "cosmetics", "store_id": 32 }, "geometry": { "type": "Point", "coordinates": [ -80.8327915, 35.152154 ] } },
{ "type": "Feature", "properties": { "name": "Sally Beauty", "address": "", "city": "", "state": "NC", "zip": "", "lat": 35.2127212, "lon": -80.7833298, "category": "hairdresser_supply", "store_id": 33 }, "geometry": { "type": "Point", "coordinates": [ -80.7833298, 35.212721199999983 ] } },
{ "type": "Feature", "properties": { "name": "Avon", "address": "", "city": "", "state": "NC", "zip": "", "lat": 35.212135, "lon": -80.7837038, "category": "cosmetics", "store_id": 34 }, "geometry": { "type": "Point", "coordinates": [ -80.7837038, 35.212135 ] } },
{ "type": "Feature", "properties": { "name": "Bath & Body Works", "address": "", "city": "", "state": "NC", "zip": "", "lat": 35.1758361, "lon": -80.8020718, "category": "cosmetics", "store_id": 35 }, "geometry": { "type": "Point", "coordinates": [ -80.8020718, 35.1758361 ] } },
{ "type": "Feature", "properties": { "name": "Ulta Beauty", "address": "236 South Sharon Amity Road", "city": "Charlotte", "state": "NC", "zip": "28211", "lat": 35.1763184, "lon": -80.8018676, "category": "beauty", "store_id": 36 }, "geometry": { "type": "Point", "coordinates": [ -80.8018676, 35.1763184 ] } },
{ "type": "Feature", "properties": { "name": "Merle Norman", "address": "10420 East Independence Boulevard", "city": "Matthews", "state": "NC", "zip": "28105", "lat": 35.1256768, "lon": -80.70733, "category": "cosmetics", "store_id": 37 }, "geometry": { "type": "Point", "coordinates": [ -80.70733, 35.1256768 ] } },
{ "type": "Feature", "properties": { "name": "Sally Beauty", "address": "1451 Woodruff Road", "city": "Greenville", "state": "NC", "zip": "29607", "lat": 34.8234027, "lon": -82.2849875, "category": "hairdresser_supply", "store_id": 38 }, "geometry": { "type": "Point", "coordinates": [ -82.2849875, 34.8234027 ] } },
{ "type": "Feature", "properties": { "name": "Sally Beauty", "address": "1216 Bridford Parkway", "city": "Greensboro", "state": "NC", "zip": "", "lat": 36.0568473, "lon": -79.903949, "category": "hairdresser_supply", "store_id": 39 }, "geometry": { "type": "Point", "coordinates": [ -79.903949, 36.0568473 ] } },
{ "type": "Feature", "properties": { "name": "Sally Beauty", "address": "339 Harrison Bridge Road", "city": "Simpsonville", "state": "NC", "zip": "29680", "lat": 34.7041812, "lon": -82.2557099, "category": "hairdresser_supply", "store_id": 40 }, "geometry": { "type": "Point", "coordinates": [ -82.2557099, 34.7041812 ] } },
{ "type": "Feature", "properties": { "name": "Bath & Body Works", "address": "", "city": "", "state": "NC", "zip": "", "lat": 35.9022748, "lon": -84.1483607, "category": "cosmetics", "store_id": 41 }, "geometry": { "type": "Point", "coordinates": [ -84.1483607, 35.9022748 ] } },
{ "type": "Feature", "properties": { "name": "Beauty World", "address": "", "city": "", "state": "NC", "zip": "", "lat": 35.1110871, "lon": -77.068011, "category": "beauty", "store_id": 42 }, "geometry": { "type": "Point", "coordinates": [ -77.068011, 35.1110871 ] } },
{ "type": "Feature", "properties": { "name": "World Beauty Supply", "address": "", "city": "", "state": "NC", "zip": "", "lat": 35.1200056, "lon": -77.0803049, "category": "beauty", "store_id": 43 }, "geometry": { "type": "Point", "coordinates": [ -77.0803049, 35.1200056 ] } },
{ "type": "Feature", "properties": { "name": "Sally Beauty", "address": "", "city": "", "state": "NC", "zip": "", "lat": 35.1015332, "lon": -77.0859566, "category": "hairdresser_supply", "store_id": 44 }, "geometry": { "type": "Point", "coordinates": [ -77.0859566, 35.1015332 ] } },
{ "type": "Feature", "properties": { "name": "Ulta Beauty", "address": "3350 West Friendly Avenue", "city": "", "state": "NC", "zip": "27410", "lat": 36.0881797, "lon": -79.8398386, "category": "beauty", "store_id": 45 }, "geometry": { "type": "Point", "coordinates": [ -79.8398386, 36.0881797 ] } },
{ "type": "Feature", "properties": { "name": "Sally Beauty", "address": "", "city": "", "state": "NC", "zip": "", "lat": 35.854621, "lon": -80.0667444, "category": "hairdresser_supply", "store_id": 46 }, "geometry": { "type": "Point", "coordinates": [ -80.0667444, 35.854621 ] } },
{ "type": "Feature", "properties": { "name": "Merle Norman", "address": "3741 Battleground Avenue", "city": "", "state": "NC", "zip": "", "lat": 36.1353764, "lon": -79.8601815, "category": "beauty", "store_id": 47 }, "geometry": { "type": "Point", "coordinates": [ -79.8601815, 36.1353764 ] } },
{ "type": "Feature", "properties": { "name": "iBeauty Supply", "address": "", "city": "", "state": "NC", "zip": "", "lat": 36.0388297, "lon": -79.8521011, "category": "beauty", "store_id": 48 }, "geometry": { "type": "Point", "coordinates": [ -79.8521011, 36.0388297 ] } },
{ "type": "Feature", "properties": { "name": "Bath & Body Works", "address": "", "city": "", "state": "NC", "zip": "", "lat": 36.0392768, "lon": -79.8384209, "category": "cosmetics", "store_id": 49 }, "geometry": { "type": "Point", "coordinates": [ -79.8384209, 36.0392768 ] } },
{ "type": "Feature", "properties": { "name": "Bath & Body Works", "address": "", "city": "", "state": "NC", "zip": "", "lat": 35.4455279, "lon": -80.881027, "category": "cosmetics", "store_id": 50 }, "geometry": { "type": "Point", "coordinates": [ -80.881027, 35.4455279 ] } },
{ "type": "Feature", "properties": { "name": "Sensational Beauty Supply", "address": "", "city": "", "state": "NC", "zip": "", "lat": 35.795995, "lon": -78.5028607, "category": "beauty", "store_id": 51 }, "geometry": { "type": "Point", "coordinates": [ -78.5028607, 35.795995 ] } },
{ "type": "Feature", "properties": { "name": "Sally Beauty", "address": "224 Lowes Boulevard", "city": "Lexington", "state": "NC", "zip": "", "lat": 35.7939581, "lon": -80.2616172, "category": "hairdresser_supply", "store_id": 52 }, "geometry": { "type": "Point", "coordinates": [ -80.2616172, 35.7939581 ] } },
{ "type": "Feature", "properties": { "name": "Bath & Body Works", "address": "400 Crossroads Boulevard", "city": "Cary", "state": "NC", "zip": "27518", "lat": 35.7594239, "lon": -78.7376303, "category": "cosmetics", "store_id": 53 }, "geometry": { "type": "Point", "coordinates": [ -78.7376303, 35.7594239 ] } },
{ "type": "Feature", "properties": { "name": "Ulta Beauty", "address": "5900 Poyner Anchor Lane", "city": "Raleigh", "state": "NC", "zip": "27616", "lat": 35.8651, "lon": -78.5674816, "category": "beauty", "store_id": 54 }, "geometry": { "type": "Point", "coordinates": [ -78.5674816, 35.8651 ] } },
{ "type": "Feature", "properties": { "name": "Merle Norman", "address": "", "city": "", "state": "NC", "zip": "", "lat": 35.5825732, "lon": -78.7999814, "category": "cosmetics", "store_id": 55 }, "geometry": { "type": "Point", "coordinates": [ -78.7999814, 35.5825732 ] } },
{ "type": "Feature", "properties": { "name": "One Beauty World", "address": "", "city": "", "state": "NC", "zip": "", "lat": 35.1708245, "lon": -78.9753509, "category": "beauty", "store_id": 56 }, "geometry": { "type": "Point", "coordinates": [ -78.9753509, 35.1708245 ] } },
{ "type": "Feature", "properties": { "name": "The Body Shop", "address": "", "city": "", "state": "NC", "zip": "", "lat": 35.2203234, "lon": -80.9436976, "category": "cosmetics", "store_id": 57 }, "geometry": { "type": "Point", "coordinates": [ -80.9436976, 35.2203234 ] } },
{ "type": "Feature", "properties": { "name": "Merle Norman", "address": "101 Verdae Boulevard", "city": "Greenville", "state": "NC", "zip": "29607", "lat": 34.8215525, "lon": -82.3416682, "category": "cosmetics", "store_id": 58 }, "geometry": { "type": "Point", "coordinates": [ -82.3416682, 34.82155250000001 ] } },
{ "type": "Feature", "properties": { "name": "Empire Hair & Beauty Supply", "address": "101 Verdae Boulevard", "city": "Greenville", "state": "NC", "zip": "29607", "lat": 34.8219399, "lon": -82.3396102, "category": "hairdresser_supply", "store_id": 59 }, "geometry": { "type": "Point", "coordinates": [ -82.3396102, 34.8219399 ] } },
{ "type": "Feature", "properties": { "name": "Bath & Body Works", "address": "", "city": "", "state": "NC", "zip": "", "lat": 33.9820923, "lon": -84.2170512, "category": "cosmetics", "store_id": 60 }, "geometry": { "type": "Point", "coordinates": [ -84.2170512, 33.9820923 ] } },
{ "type": "Feature", "properties": { "name": "Ulta Beauty", "address": "5145 Peachtree Parkway", "city": "Berkeley Lake", "state": "GA", "zip": "30092", "lat": 33.9822991, "lon": -84.2168929, "category": "beauty", "store_id": 61 }, "geometry": { "type": "Point", "coordinates": [ -84.2168929, 33.9822991 ] } },
{ "type": "Feature", "properties": { "name": "Sheree's Natural Cosmetics", "address": "3008 Northline Avenue", "city": "", "state": "NC", "zip": "", "lat": 36.0879207, "lon": -79.8293488, "category": "cosmetics", "store_id": 62 }, "geometry": { "type": "Point", "coordinates": [ -79.8293488, 36.0879207 ] } },
{ "type": "Feature", "properties": { "name": "Sephora", "address": "803 Friendly Center Road", "city": "", "state": "NC", "zip": "", "lat": 36.0868919, "lon": -79.830796, "category": "cosmetics", "store_id": 63 }, "geometry": { "type": "Point", "coordinates": [ -79.830796, 36.0868919 ] } },
{ "type": "Feature", "properties": { "name": "King's Beauty Supply", "address": "117 West Butler Road", "city": "Mauldin", "state": "NC", "zip": "29662", "lat": 34.776868, "lon": -82.3108134, "category": "hairdresser_supply", "store_id": 64 }, "geometry": { "type": "Point", "coordinates": [ -82.3108134, 34.776868 ] } },
{ "type": "Feature", "properties": { "name": "EISS", "address": "603 Haywood Road", "city": "Greenville", "state": "NC", "zip": "29607", "lat": 34.8484975, "lon": -82.3406125, "category": "hairdresser_supply", "store_id": 65 }, "geometry": { "type": "Point", "coordinates": [ -82.3406125, 34.8484975 ] } },
{ "type": "Feature", "properties": { "name": "Ulta Beauty", "address": "1125 Woodruff Road", "city": "Greenville", "state": "SC", "zip": "29607", "lat": 34.8292472, "lon": -82.2983017, "category": "cosmetics", "store_id": 66 }, "geometry": { "type": "Point", "coordinates": [ -82.2983017, 34.8292472 ] } },
{ "type": "Feature", "properties": { "name": "Ulta Beauty", "address": "2116 Village Market Place", "city": "Morrisville", "state": "NC", "zip": "27560", "lat": 35.8073259, "lon": -78.8169479, "category": "cosmetics", "store_id": 67 }, "geometry": { "type": "Point", "coordinates": [ -78.8169479, 35.8073259 ] } },
{ "type": "Feature", "properties": { "name": "Diva Beauty Supply", "address": "3237 North Pleasantburg Drive", "city": "Greenville", "state": "NC", "zip": "29609", "lat": 34.8888132, "lon": -82.4019331, "category": "beauty", "store_id": 68 }, "geometry": { "type": "Point", "coordinates": [ -82.4019331, 34.8888132 ] } },
{ "type": "Feature", "properties": { "name": "Bath & Body Works", "address": "3265 North Pleasantburg Drive", "city": "Greenville", "state": "NC", "zip": "29609", "lat": 34.890097, "lon": -82.4037698, "category": "cosmetics", "store_id": 69 }, "geometry": { "type": "Point", "coordinates": [ -82.4037698, 34.890097 ] } },
{ "type": "Feature", "properties": { "name": "CosmoProf", "address": "", "city": "", "state": "NC", "zip": "", "lat": 36.0864976, "lon": -80.2910611, "category": "hairdresser_supply", "store_id": 70 }, "geometry": { "type": "Point", "coordinates": [ -80.2910611, 36.0864976 ] } },
{ "type": "Feature", "properties": { "name": "Bath & Body Works", "address": "", "city": "", "state": "NC", "zip": "", "lat": 34.1298461, "lon": -80.8785162, "category": "cosmetics", "store_id": 71 }, "geometry": { "type": "Point", "coordinates": [ -80.8785162, 34.1298461 ] } },
{ "type": "Feature", "properties": { "name": "super clips", "address": "", "city": "", "state": "NC", "zip": "", "lat": 35.4672907, "lon": -83.0095862, "category": "cosmetics", "store_id": 72 }, "geometry": { "type": "Point", "coordinates": [ -83.0095862, 35.4672907 ] } },
{ "type": "Feature", "properties": { "name": "MAC Cosmetics", "address": "", "city": "", "state": "NC", "zip": "", "lat": 35.220705, "lon": -80.9421255, "category": "cosmetics", "store_id": 73 }, "geometry": { "type": "Point", "coordinates": [ -80.9421255, 35.220705 ] } },
{ "type": "Feature", "properties": { "name": "Sally Beauty", "address": "", "city": "", "state": "NC", "zip": "", "lat": 34.0703657, "lon": -81.1578243, "category": "hairdresser_supply", "store_id": 74 }, "geometry": { "type": "Point", "coordinates": [ -81.1578243, 34.0703657 ] } },
{ "type": "Feature", "properties": { "name": "Ulta Beauty", "address": "320 Harbison Boulevard", "city": "Columbia", "state": "SC", "zip": "29212", "lat": 34.072761, "lon": -81.155208, "category": "cosmetics", "store_id": 75 }, "geometry": { "type": "Point", "coordinates": [ -81.155208, 34.072761 ] } },
{ "type": "Feature", "properties": { "name": "Bath & Body Works", "address": "801 Friendly Center Road", "city": "Greensboro", "state": "NC", "zip": "27408", "lat": 36.0866299, "lon": -79.8309445, "category": "cosmetics", "store_id": 76 }, "geometry": { "type": "Point", "coordinates": [ -79.8309445, 36.0866299 ] } },
{ "type": "Feature", "properties": { "name": "Sephora", "address": "4400 sharon road", "city": "charlotte", "state": "nc", "zip": "28210", "lat": 35.1519915, "lon": -80.8317468, "category": "cosmetics", "store_id": 77 }, "geometry": { "type": "Point", "coordinates": [ -80.8317468, 35.1519915 ] } },
{ "type": "Feature", "properties": { "name": "bareMinerals", "address": "4400 sharon road", "city": "charlotte", "state": "nc", "zip": "28210", "lat": 35.1509051, "lon": -80.8331504, "category": "cosmetics", "store_id": 78 }, "geometry": { "type": "Point", "coordinates": [ -80.8331504, 35.1509051 ] } },
{ "type": "Feature", "properties": { "name": "MAC Cosmetics", "address": "4400 sharon road", "city": "charlotte", "state": "nc", "zip": "28210", "lat": 35.1518702, "lon": -80.8312978, "category": "cosmetics", "store_id": 79 }, "geometry": { "type": "Point", "coordinates": [ -80.8312978, 35.1518702 ] } },
{ "type": "Feature", "properties": { "name": "Merle Norman", "address": "", "city": "", "state": "NC", "zip": "", "lat": 35.08327, "lon": -80.8770703, "category": "cosmetics", "store_id": 80 }, "geometry": { "type": "Point", "coordinates": [ -80.8770703, 35.08327 ] } },
{ "type": "Feature", "properties": { "name": "Bath & Body Works", "address": "", "city": "", "state": "NC", "zip": "", "lat": 35.0825824, "lon": -80.8765362, "category": "cosmetics", "store_id": 81 }, "geometry": { "type": "Point", "coordinates": [ -80.8765362, 35.0825824 ] } },
{ "type": "Feature", "properties": { "name": "Sephora", "address": "", "city": "", "state": "NC", "zip": "", "lat": 35.3523382, "lon": -80.8497906, "category": "cosmetics", "store_id": 82 }, "geometry": { "type": "Point", "coordinates": [ -80.8497906, 35.3523382 ] } },
{ "type": "Feature", "properties": { "name": "Bath & Body Works", "address": "", "city": "", "state": "NC", "zip": "", "lat": 35.3520277, "lon": -80.8501967, "category": "cosmetics", "store_id": 83 }, "geometry": { "type": "Point", "coordinates": [ -80.850196700000012, 35.3520277 ] } },
{ "type": "Feature", "properties": { "name": "Bath & Body Works", "address": "", "city": "", "state": "NC", "zip": "", "lat": 36.0701419, "lon": -79.508401, "category": "cosmetics", "store_id": 84 }, "geometry": { "type": "Point", "coordinates": [ -79.508401, 36.0701419 ] } },
{ "type": "Feature", "properties": { "name": "Avon Outlet Store", "address": "104 North Main Street", "city": "Fountain Inn", "state": "SC", "zip": "29644", "lat": 34.6936454, "lon": -82.1997367, "category": "cosmetics", "store_id": 85 }, "geometry": { "type": "Point", "coordinates": [ -82.1997367, 34.6936454 ] } },
{ "type": "Feature", "properties": { "name": "Bath & Body Works", "address": "", "city": "", "state": "NC", "zip": "", "lat": 35.8412802, "lon": -78.6808616, "category": "cosmetics", "store_id": 86 }, "geometry": { "type": "Point", "coordinates": [ -78.6808616, 35.8412802 ] } },
{ "type": "Feature", "properties": { "name": "The Body Shop", "address": "", "city": "", "state": "NC", "zip": "", "lat": 35.8396185, "lon": -78.6791737, "category": "cosmetics", "store_id": 87 }, "geometry": { "type": "Point", "coordinates": [ -78.679173700000021, 35.8396185 ] } },
{ "type": "Feature", "properties": { "name": "Lush", "address": "", "city": "", "state": "NC", "zip": "", "lat": 35.8399872, "lon": -78.6794544, "category": "cosmetics", "store_id": 88 }, "geometry": { "type": "Point", "coordinates": [ -78.6794544, 35.8399872 ] } },
{ "type": "Feature", "properties": { "name": "MAC Cosmetics", "address": "", "city": "", "state": "NC", "zip": "", "lat": 35.8399423, "lon": -78.6797016, "category": "cosmetics", "store_id": 89 }, "geometry": { "type": "Point", "coordinates": [ -78.6797016, 35.8399423 ] } },
{ "type": "Feature", "properties": { "name": "Sephora", "address": "", "city": "", "state": "NC", "zip": "", "lat": 34.0657584, "lon": -83.9824684, "category": "cosmetics", "store_id": 90 }, "geometry": { "type": "Point", "coordinates": [ -83.9824684, 34.0657584 ] } },
{ "type": "Feature", "properties": { "name": "Diva Beauty Supply", "address": "621 Fairview Road", "city": "Simpsonville", "state": "NC", "zip": "29680", "lat": 34.7152322, "lon": -82.2531756, "category": "cosmetics", "store_id": 91 }, "geometry": { "type": "Point", "coordinates": [ -82.2531756, 34.7152322 ] } },
{ "type": "Feature", "properties": { "name": "Avon", "address": "617 Saint Andrews Road", "city": "Columbia", "state": "SC", "zip": "29210", "lat": 34.0453278, "lon": -81.1248723, "category": "cosmetics", "store_id": 92 }, "geometry": { "type": "Point", "coordinates": [ -81.1248723, 34.0453278 ] } },
{ "type": "Feature", "properties": { "name": "King's Beauty Supply", "address": "", "city": "", "state": "NC", "zip": "", "lat": 34.0460538, "lon": -81.1009071, "category": "beauty", "store_id": 93 }, "geometry": { "type": "Point", "coordinates": [ -81.1009071, 34.0460538 ] } },
{ "type": "Feature", "properties": { "name": "Palmetto Beauty & Wigs", "address": "", "city": "", "state": "NC", "zip": "", "lat": 34.1068961, "lon": -81.1899447, "category": "beauty", "store_id": 94 }, "geometry": { "type": "Point", "coordinates": [ -81.189944700000012, 34.1068961 ] } },
{ "type": "Feature", "properties": { "name": "Cosmetics Company", "address": "1645 Parkway", "city": "Sevierville", "state": "TN", "zip": "37862", "lat": 35.8316305, "lon": -83.5725978, "category": "cosmetics", "store_id": 95 }, "geometry": { "type": "Point", "coordinates": [ -83.5725978, 35.8316305 ] } },
{ "type": "Feature", "properties": { "name": "Sally Beauty", "address": "", "city": "", "state": "NC", "zip": "", "lat": 33.9999079, "lon": -81.2189302, "category": "hairdresser_supply", "store_id": 96 }, "geometry": { "type": "Point", "coordinates": [ -81.2189302, 33.9999079 ] } },
{ "type": "Feature", "properties": { "name": "L'Occitane", "address": "", "city": "", "state": "NC", "zip": "", "lat": 34.8496307, "lon": -82.3341215, "category": "cosmetics", "store_id": 97 }, "geometry": { "type": "Point", "coordinates": [ -82.3341215, 34.8496307 ] } },
{ "type": "Feature", "properties": { "name": "Sephora", "address": "", "city": "", "state": "NC", "zip": "", "lat": 34.849564, "lon": -82.334215, "category": "cosmetics", "store_id": 98 }, "geometry": { "type": "Point", "coordinates": [ -82.334215, 34.849564 ] } },
{ "type": "Feature", "properties": { "name": "Bath & Body Works", "address": "", "city": "", "state": "NC", "zip": "", "lat": 34.8496801, "lon": -82.3338056, "category": "cosmetics", "store_id": 99 }, "geometry": { "type": "Point", "coordinates": [ -82.3338056, 34.849680099999986 ] } },
{ "type": "Feature", "properties": { "name": "Beauty World", "address": "", "city": "", "state": "NC", "zip": "", "lat": 34.0248321, "lon": -81.0811907, "category": "beauty", "store_id": 100 }, "geometry": { "type": "Point", "coordinates": [ -81.0811907, 34.0248321 ] } },
{ "type": "Feature", "properties": { "name": "Bath & Body Works", "address": "", "city": "", "state": "NC", "zip": "", "lat": 34.0664599, "lon": -80.9622246, "category": "cosmetics", "store_id": 101 }, "geometry": { "type": "Point", "coordinates": [ -80.9622246, 34.0664599 ] } },
{ "type": "Feature", "properties": { "name": "Beauty World", "address": "", "city": "", "state": "NC", "zip": "", "lat": 34.0591775, "lon": -81.0098698, "category": "beauty", "store_id": 102 }, "geometry": { "type": "Point", "coordinates": [ -81.0098698, 34.0591775 ] } },
{ "type": "Feature", "properties": { "name": "Sally Beauty", "address": "", "city": "", "state": "NC", "zip": "", "lat": 34.0293788, "lon": -81.106597, "category": "hairdresser_supply", "store_id": 103 }, "geometry": { "type": "Point", "coordinates": [ -81.106597, 34.0293788 ] } },
{ "type": "Feature", "properties": { "name": "Bath & Body Works", "address": "", "city": "", "state": "NC", "zip": "", "lat": 35.071813, "lon": -78.9603315, "category": "cosmetics", "store_id": 104 }, "geometry": { "type": "Point", "coordinates": [ -78.9603315, 35.071813 ] } },
{ "type": "Feature", "properties": { "name": "Sephora", "address": "", "city": "", "state": "NC", "zip": "", "lat": 35.0731988, "lon": -78.9606223, "category": "cosmetics", "store_id": 105 }, "geometry": { "type": "Point", "coordinates": [ -78.9606223, 35.0731988 ] } },
{ "type": "Feature", "properties": { "name": "Sally Beauty", "address": "", "city": "", "state": "NC", "zip": "", "lat": 35.0676729, "lon": -78.9629664, "category": "hairdresser_supply", "store_id": 106 }, "geometry": { "type": "Point", "coordinates": [ -78.9629664, 35.0676729 ] } },
{ "type": "Feature", "properties": { "name": "Ulta Beauty", "address": "5075 Morganton Road", "city": "Fayetteville", "state": "NC", "zip": "28314", "lat": 35.0682023, "lon": -78.9623173, "category": "beauty", "store_id": 107 }, "geometry": { "type": "Point", "coordinates": [ -78.9623173, 35.0682023 ] } },
{ "type": "Feature", "properties": { "name": "Bath & Body Works", "address": "", "city": "", "state": "NC", "zip": "", "lat": 35.0963948, "lon": -80.7852332, "category": "cosmetics", "store_id": 108 }, "geometry": { "type": "Point", "coordinates": [ -80.7852332, 35.0963948 ] } },
{ "type": "Feature", "properties": { "name": "Ulta Beauty", "address": "1461 University Drive", "city": "Burlington", "state": "NC", "zip": "27215", "lat": 36.0655599, "lon": -79.5227474, "category": "beauty", "store_id": 109 }, "geometry": { "type": "Point", "coordinates": [ -79.5227474, 36.0655599 ] } },
{ "type": "Feature", "properties": { "name": "Sally Beauty", "address": "", "city": "", "state": "NC", "zip": "", "lat": 36.0677129, "lon": -79.5210415, "category": "hairdresser_supply", "store_id": 110 }, "geometry": { "type": "Point", "coordinates": [ -79.5210415, 36.0677129 ] } },
{ "type": "Feature", "properties": { "name": "Sally Beauty", "address": "", "city": "", "state": "NC", "zip": "", "lat": 33.9810152, "lon": -81.0977072, "category": "hairdresser_supply", "store_id": 111 }, "geometry": { "type": "Point", "coordinates": [ -81.0977072, 33.9810152 ] } },
{ "type": "Feature", "properties": { "name": "A & J Beauty Supply", "address": "", "city": "", "state": "NC", "zip": "", "lat": 33.8793881, "lon": -83.9376569, "category": "beauty", "store_id": 112 }, "geometry": { "type": "Point", "coordinates": [ -83.9376569, 33.8793881 ] } },
{ "type": "Feature", "properties": { "name": "Ulta Beauty", "address": "165 Shenstone Boulevard", "city": "Garner", "state": "NC", "zip": "27529", "lat": 35.6943021, "lon": -78.5805939, "category": "cosmetics", "store_id": 113 }, "geometry": { "type": "Point", "coordinates": [ -78.5805939, 35.6943021 ] } },
{ "type": "Feature", "properties": { "name": "Bath & Body Works", "address": "1453 Garner Station Boulevard", "city": "Raleigh", "state": "NC", "zip": "27603", "lat": 35.7229107, "lon": -78.6551098, "category": "cosmetics", "store_id": 114 }, "geometry": { "type": "Point", "coordinates": [ -78.6551098, 35.7229107 ] } },
{ "type": "Feature", "properties": { "name": "Ulta Beauty", "address": "409 Crossroads Boulevard", "city": "Cary", "state": "NC", "zip": "27518", "lat": 35.7615921, "lon": -78.7357008, "category": "beauty", "store_id": 115 }, "geometry": { "type": "Point", "coordinates": [ -78.7357008, 35.7615921 ] } },
{ "type": "Feature", "properties": { "name": "iBeauty Supply", "address": "3233 Avent Ferry Road", "city": "Raleigh", "state": "NC", "zip": "27606", "lat": 35.7664061, "lon": -78.6962456, "category": "beauty", "store_id": 116 }, "geometry": { "type": "Point", "coordinates": [ -78.6962456, 35.7664061 ] } },
{ "type": "Feature", "properties": { "name": "The Fragrance Shop", "address": "200 North Greensboro Street", "city": "Carrboro", "state": "NC", "zip": "27510", "lat": 35.9114171, "lon": -79.0710793, "category": "perfumery", "store_id": 117 }, "geometry": { "type": "Point", "coordinates": [ -79.0710793, 35.911417099999987 ] } },
{ "type": "Feature", "properties": { "name": "CosmoProf", "address": "1474 Garner Station Boulevard", "city": "Raleigh", "state": "NC", "zip": "27603", "lat": 35.7261504, "lon": -78.6540307, "category": "hairdresser_supply", "store_id": 118 }, "geometry": { "type": "Point", "coordinates": [ -78.6540307, 35.7261504 ] } },
{ "type": "Feature", "properties": { "name": "Beauty World", "address": "", "city": "", "state": "NC", "zip": "", "lat": 35.9832209, "lon": -80.0225815, "category": "beauty", "store_id": 119 }, "geometry": { "type": "Point", "coordinates": [ -80.0225815, 35.9832209 ] } },
{ "type": "Feature", "properties": { "name": "Sally Beauty", "address": "", "city": "", "state": "NC", "zip": "", "lat": 35.2757127, "lon": -82.7039357, "category": "hairdresser_supply", "store_id": 120 }, "geometry": { "type": "Point", "coordinates": [ -82.7039357, 35.2757127 ] } },
{ "type": "Feature", "properties": { "name": "Merle Norman", "address": "4011 Durham Chapel Hill Boulevard", "city": "Durham", "state": "NC", "zip": "27707", "lat": 35.9667623, "lon": -78.9575462, "category": "beauty", "store_id": 121 }, "geometry": { "type": "Point", "coordinates": [ -78.9575462, 35.9667623 ] } },
{ "type": "Feature", "properties": { "name": "Ulta Beauty", "address": "13350 Clemson Boulevard", "city": "Seneca", "state": "SC", "zip": "29678", "lat": 34.6908673, "lon": -82.8579841, "category": "cosmetics", "store_id": 122 }, "geometry": { "type": "Point", "coordinates": [ -82.8579841, 34.6908673 ] } },
{ "type": "Feature", "properties": { "name": "Sally Beauty", "address": "", "city": "", "state": "NC", "zip": "", "lat": 35.9063291, "lon": -78.7850492, "category": "hairdresser_supply", "store_id": 123 }, "geometry": { "type": "Point", "coordinates": [ -78.7850492, 35.9063291 ] } },
{ "type": "Feature", "properties": { "name": "CosmoProf", "address": "4600 Durham Chapel Hill Boulevard", "city": "Durham", "state": "NC", "zip": "27707", "lat": 35.9627599, "lon": -78.9781849, "category": "beauty", "store_id": 124 }, "geometry": { "type": "Point", "coordinates": [ -78.9781849, 35.9627599 ] } },
{ "type": "Feature", "properties": { "name": "Tresor Rare De Premier", "address": "", "city": "", "state": "NC", "zip": "", "lat": 35.8033424, "lon": -83.5700624, "category": "perfumery", "store_id": 125 }, "geometry": { "type": "Point", "coordinates": [ -83.5700624, 35.8033424 ] } },
{ "type": "Feature", "properties": { "name": "Avon", "address": "312 South Main Street", "city": "Woodruff", "state": "SC", "zip": "29388", "lat": 34.7370147, "lon": -82.0358469, "category": "cosmetics", "store_id": 126 }, "geometry": { "type": "Point", "coordinates": [ -82.0358469, 34.7370147 ] } },
{ "type": "Feature", "properties": { "name": "Town Beauty Supply", "address": "397 West Main Street", "city": "Spartanburg", "state": "SC", "zip": "29301", "lat": 34.946164, "lon": -81.9401949, "category": "beauty", "store_id": 127 }, "geometry": { "type": "Point", "coordinates": [ -81.9401949, 34.946164 ] } },
{ "type": "Feature", "properties": { "name": "Sally Beauty", "address": "120 Dorman Commerce Drive", "city": "Spartanburg", "state": "SC", "zip": "29301", "lat": 34.931458, "lon": -81.9863118, "category": "hairdresser_supply", "store_id": 128 }, "geometry": { "type": "Point", "coordinates": [ -81.98631180000001, 34.931458 ] } },
{ "type": "Feature", "properties": { "name": "Sally Beauty", "address": "4018 Highway 9", "city": "Boiling Springs", "state": "SC", "zip": "29316", "lat": 35.0521325, "lon": -81.9871067, "category": "hairdresser_supply", "store_id": 129 }, "geometry": { "type": "Point", "coordinates": [ -81.9871067, 35.0521325 ] } },
{ "type": "Feature", "properties": { "name": "K-Wig Beauty Supply", "address": "", "city": "", "state": "NC", "zip": "", "lat": 35.8229569, "lon": -80.2543337, "category": "beauty", "store_id": 130 }, "geometry": { "type": "Point", "coordinates": [ -80.2543337, 35.8229569 ] } },
{ "type": "Feature", "properties": { "name": "Total Beauty Supply", "address": "", "city": "", "state": "NC", "zip": "", "lat": 35.8911183, "lon": -80.0719587, "category": "beauty", "store_id": 131 }, "geometry": { "type": "Point", "coordinates": [ -80.0719587, 35.8911183 ] } },
{ "type": "Feature", "properties": { "name": "Wigs", "address": "", "city": "", "state": "NC", "zip": "", "lat": 35.9755343, "lon": -80.0184705, "category": "beauty", "store_id": 132 }, "geometry": { "type": "Point", "coordinates": [ -80.0184705, 35.9755343 ] } },
{ "type": "Feature", "properties": { "name": "Ulta Beauty", "address": "1316 West Wade Hampton Boulevard", "city": "Greer", "state": "SC", "zip": "29650", "lat": 34.9422234, "lon": -82.2624895, "category": "cosmetics", "store_id": 133 }, "geometry": { "type": "Point", "coordinates": [ -82.2624895, 34.9422234 ] } },
{ "type": "Feature", "properties": { "name": "Sally Beauty", "address": "", "city": "", "state": "NC", "zip": "", "lat": 35.6498969, "lon": -82.0301552, "category": "hairdresser_supply", "store_id": 134 }, "geometry": { "type": "Point", "coordinates": [ -82.0301552, 35.6498969 ] } },
{ "type": "Feature", "properties": { "name": "Ulta Beauty", "address": "3 South Tunnel Road", "city": "Asheville", "state": "NC", "zip": "28805", "lat": 35.5816697, "lon": -82.526106, "category": "beauty", "store_id": 135 }, "geometry": { "type": "Point", "coordinates": [ -82.526106, 35.5816697 ] } },
{ "type": "Feature", "properties": { "name": "Beauty Supply", "address": "", "city": "", "state": "NC", "zip": "", "lat": 36.0516583, "lon": -79.8054888, "category": "beauty", "store_id": 136 }, "geometry": { "type": "Point", "coordinates": [ -79.8054888, 36.0516583 ] } },
{ "type": "Feature", "properties": { "name": "Desires Beauty Supply", "address": "2813 West Sugar Creek Road", "city": "Charlotte", "state": "NC", "zip": "28269", "lat": 35.3003401, "lon": -80.8022766, "category": "beauty", "store_id": 137 }, "geometry": { "type": "Point", "coordinates": [ -80.8022766, 35.3003401 ] } },
{ "type": "Feature", "properties": { "name": "Beauty Supply", "address": "", "city": "", "state": "NC", "zip": "", "lat": 35.2486223, "lon": -80.8168514, "category": "beauty", "store_id": 138 }, "geometry": { "type": "Point", "coordinates": [ -80.8168514, 35.2486223 ] } },
{ "type": "Feature", "properties": { "name": "Sally Beauty", "address": "", "city": "", "state": "NC", "zip": "", "lat": 35.0254938, "lon": -79.054502, "category": "hairdresser_supply", "store_id": 139 }, "geometry": { "type": "Point", "coordinates": [ -79.054502, 35.0254938 ] } },
{ "type": "Feature", "properties": { "name": "Sally Beauty", "address": "5131 NC 42 Highway West", "city": "Clayton", "state": "NC", "zip": "27529", "lat": 35.6105854, "lon": -78.5548587, "category": "hairdresser_supply", "store_id": 140 }, "geometry": { "type": "Point", "coordinates": [ -78.5548587, 35.6105854 ] } },
{ "type": "Feature", "properties": { "name": "CosmoProf", "address": "1325 Miller Road", "city": "Greenville", "state": "NC", "zip": "29607", "lat": 34.822935, "lon": -82.2979966, "category": "hairdresser_supply", "store_id": 141 }, "geometry": { "type": "Point", "coordinates": [ -82.2979966, 34.822935 ] } },
{ "type": "Feature", "properties": { "name": "Bath & Body Works", "address": "", "city": "", "state": "NC", "zip": "", "lat": 34.9389652, "lon": -81.9940216, "category": "cosmetics", "store_id": 142 }, "geometry": { "type": "Point", "coordinates": [ -81.9940216, 34.9389652 ] } },
{ "type": "Feature", "properties": { "name": "Sally Beauty", "address": "", "city": "", "state": "NC", "zip": "", "lat": 34.2459008, "lon": -77.878831, "category": "hairdresser_supply", "store_id": 143 }, "geometry": { "type": "Point", "coordinates": [ -77.878831, 34.2459008 ] } },
{ "type": "Feature", "properties": { "name": "Fabulously Flawless Permanent Cosmetics", "address": "", "city": "", "state": "NC", "zip": "", "lat": 35.8578147, "lon": -78.6392422, "category": "cosmetics", "store_id": 144 }, "geometry": { "type": "Point", "coordinates": [ -78.6392422, 35.8578147 ] } },
{ "type": "Feature", "properties": { "name": "Beauty Giant", "address": "", "city": "", "state": "NC", "zip": "", "lat": 36.0222178, "lon": -79.8456909, "category": "hairdresser_supply", "store_id": 145 }, "geometry": { "type": "Point", "coordinates": [ -79.8456909, 36.0222178 ] } },
{ "type": "Feature", "properties": { "name": "Sally Beauty", "address": "", "city": "", "state": "NC", "zip": "", "lat": 35.3336378, "lon": -81.8979426, "category": "hairdresser_supply", "store_id": 146 }, "geometry": { "type": "Point", "coordinates": [ -81.8979426, 35.3336378 ] } },
{ "type": "Feature", "properties": { "name": "MAC Cosmetics", "address": "2100 Pleasant Hill Road", "city": "Duluth", "state": "GA", "zip": "30096", "lat": 33.9612762, "lon": -84.1276607, "category": "cosmetics", "store_id": 147 }, "geometry": { "type": "Point", "coordinates": [ -84.1276607, 33.9612762 ] } },
{ "type": "Feature", "properties": { "name": "Beauty Master", "address": "2100 Pleasant Hill Road", "city": "Duluth", "state": "GA", "zip": "30096", "lat": 33.9612648, "lon": -84.1245173, "category": "cosmetics", "store_id": 148 }, "geometry": { "type": "Point", "coordinates": [ -84.1245173, 33.9612648 ] } },
{ "type": "Feature", "properties": { "name": "Bath & Body Works", "address": "2001 East Dixon Boulevard", "city": "Shelby", "state": "NC", "zip": "28152", "lat": 35.2695634, "lon": -81.4821335, "category": "cosmetics", "store_id": 149 }, "geometry": { "type": "Point", "coordinates": [ -81.4821335, 35.26956340000001 ] } },
{ "type": "Feature", "properties": { "name": "Top Beauty Supply", "address": "2100 Riverside Parkway", "city": "Lawrenceville", "state": "GA", "zip": "30043", "lat": 33.9674182, "lon": -84.033612, "category": "beauty", "store_id": 150 }, "geometry": { "type": "Point", "coordinates": [ -84.033612, 33.9674182 ] } },
{ "type": "Feature", "properties": { "name": "Sally Beauty", "address": "", "city": "", "state": "NC", "zip": "", "lat": 35.7987257, "lon": -78.5587432, "category": "hairdresser_supply", "store_id": 151 }, "geometry": { "type": "Point", "coordinates": [ -78.5587432, 35.7987257 ] } },
{ "type": "Feature", "properties": { "name": "Sally Beauty", "address": "", "city": "", "state": "NC", "zip": "", "lat": 33.9575796, "lon": -80.3892618, "category": "hairdresser_supply", "store_id": 152 }, "geometry": { "type": "Point", "coordinates": [ -80.3892618, 33.9575796 ] } },
{ "type": "Feature", "properties": { "name": "Marina Beauty Supply", "address": "1318 North Main Street", "city": "Fuquay-Varina", "state": "NC", "zip": "27526", "lat": 35.5903417, "lon": -78.7774886, "category": "beauty", "store_id": 153 }, "geometry": { "type": "Point", "coordinates": [ -78.7774886, 35.590341699999989 ] } },
{ "type": "Feature", "properties": { "name": "Ulta Beauty", "address": "6101 Calhoun Memorial Highway", "city": "Easley", "state": "SC", "zip": "29640", "lat": 34.8227038, "lon": -82.5765681, "category": "cosmetics", "store_id": 154 }, "geometry": { "type": "Point", "coordinates": [ -82.5765681, 34.822703799999985 ] } },
{ "type": "Feature", "properties": { "name": "C&C Beauty & Beyond", "address": "", "city": "", "state": "NC", "zip": "", "lat": 33.9023208, "lon": -84.1129857, "category": "hairdresser_supply", "store_id": 155 }, "geometry": { "type": "Point", "coordinates": [ -84.1129857, 33.9023208 ] } },
{ "type": "Feature", "properties": { "name": "Sally Beauty", "address": "", "city": "", "state": "NC", "zip": "", "lat": 35.1073391, "lon": -84.0071732, "category": "hairdresser_supply", "store_id": 156 }, "geometry": { "type": "Point", "coordinates": [ -84.0071732, 35.1073391 ] } },
{ "type": "Feature", "properties": { "name": "T&S Beuty Supply", "address": "", "city": "", "state": "NC", "zip": "", "lat": 33.8705714, "lon": -84.0158361, "category": "hairdresser_supply", "store_id": 157 }, "geometry": { "type": "Point", "coordinates": [ -84.0158361, 33.8705714 ] } },
{ "type": "Feature", "properties": { "name": "Sally Beauty", "address": "", "city": "", "state": "NC", "zip": "", "lat": 35.9041232, "lon": -78.9533415, "category": "hairdresser_supply", "store_id": 158 }, "geometry": { "type": "Point", "coordinates": [ -78.9533415, 35.9041232 ] } },
{ "type": "Feature", "properties": { "name": "Merle Norman", "address": "311 East Greer Street", "city": "Honea Path", "state": "SC", "zip": "29654", "lat": 34.4464998, "lon": -82.3886124, "category": "cosmetics", "store_id": 159 }, "geometry": { "type": "Point", "coordinates": [ -82.3886124, 34.4464998 ] } },
{ "type": "Feature", "properties": { "name": "Bath & Body Works", "address": "1606 Highwoods Boulevard", "city": "", "state": "NC", "zip": "", "lat": 36.1121493, "lon": -79.8779382, "category": "cosmetics", "store_id": 160 }, "geometry": { "type": "Point", "coordinates": [ -79.8779382, 36.1121493 ] } },
{ "type": "Feature", "properties": { "name": "Sally Beauty", "address": "", "city": "", "state": "NC", "zip": "", "lat": 35.0661523, "lon": -78.9521836, "category": "hairdresser_supply", "store_id": 161 }, "geometry": { "type": "Point", "coordinates": [ -78.9521836, 35.0661523 ] } },
{ "type": "Feature", "properties": { "name": "Boom Boom Beauty Supply", "address": "55 East Antrim Drive", "city": "Greenville", "state": "SC", "zip": "29607", "lat": 34.8415508, "lon": -82.3609991, "category": "beauty", "store_id": 162 }, "geometry": { "type": "Point", "coordinates": [ -82.360999100000015, 34.8415508 ] } },
{ "type": "Feature", "properties": { "name": "EZ Hair Beauty Supply", "address": "", "city": "", "state": "NC", "zip": "", "lat": 36.0497793, "lon": -79.8355608, "category": "hairdresser_supply", "store_id": 163 }, "geometry": { "type": "Point", "coordinates": [ -79.8355608, 36.0497793 ] } },
{ "type": "Feature", "properties": { "name": "Leena Beauty Supply", "address": "", "city": "", "state": "NC", "zip": "", "lat": 35.7911789, "lon": -78.5478256, "category": "beauty", "store_id": 164 }, "geometry": { "type": "Point", "coordinates": [ -78.5478256, 35.7911789 ] } },
{ "type": "Feature", "properties": { "name": "Bath & Body Works", "address": "", "city": "", "state": "NC", "zip": "", "lat": 36.0705629, "lon": -80.2998266, "category": "cosmetics", "store_id": 165 }, "geometry": { "type": "Point", "coordinates": [ -80.2998266, 36.0705629 ] } },
{ "type": "Feature", "properties": { "name": "Bath & Body Works", "address": "", "city": "", "state": "NC", "zip": "", "lat": 34.6901597, "lon": -82.989518, "category": "cosmetics", "store_id": 166 }, "geometry": { "type": "Point", "coordinates": [ -82.989518, 34.6901597 ] } },
{ "type": "Feature", "properties": { "name": "Bath & Body Works", "address": "", "city": "", "state": "NC", "zip": "", "lat": 35.5296776, "lon": -82.6027558, "category": "cosmetics", "store_id": 167 }, "geometry": { "type": "Point", "coordinates": [ -82.6027558, 35.5296776 ] } },
{ "type": "Feature", "properties": { "name": "Fragrance Outlet", "address": "", "city": "", "state": "NC", "zip": "", "lat": 35.5298083, "lon": -82.6032562, "category": "perfumery", "store_id": 168 }, "geometry": { "type": "Point", "coordinates": [ -82.6032562, 35.5298083 ] } },
{ "type": "Feature", "properties": { "name": "Sally Beauty", "address": "6260 Bayfield Parkway", "city": "Concord", "state": "NC", "zip": "28027", "lat": 35.4157622, "lon": -80.6795594, "category": "hairdresser_supply", "store_id": 169 }, "geometry": { "type": "Point", "coordinates": [ -80.6795594, 35.4157622 ] } },
{ "type": "Feature", "properties": { "name": "Ulta Beauty", "address": "5336 Sunset Boulevard", "city": "Lexington", "state": "SC", "zip": "29072", "lat": 34.003655, "lon": -81.2091822, "category": "beauty", "store_id": 170 }, "geometry": { "type": "Point", "coordinates": [ -81.2091822, 34.003655 ] } },
{ "type": "Feature", "properties": { "name": "Perfumania", "address": "", "city": "", "state": "NC", "zip": "", "lat": 33.8498379, "lon": -84.2544336, "category": "perfumery", "store_id": 171 }, "geometry": { "type": "Point", "coordinates": [ -84.2544336, 33.8498379 ] } },
{ "type": "Feature", "properties": { "name": "Bath & Body Works", "address": "", "city": "", "state": "NC", "zip": "", "lat": 33.8499269, "lon": -84.2554936, "category": "cosmetics", "store_id": 172 }, "geometry": { "type": "Point", "coordinates": [ -84.2554936, 33.8499269 ] } },
{ "type": "Feature", "properties": { "name": "Star Perfume", "address": "", "city": "", "state": "NC", "zip": "", "lat": 33.8503937, "lon": -84.2552368, "category": "perfumery", "store_id": 173 }, "geometry": { "type": "Point", "coordinates": [ -84.25523680000002, 33.8503937 ] } },
{ "type": "Feature", "properties": { "name": "Avon", "address": "", "city": "", "state": "NC", "zip": "", "lat": 33.8495209, "lon": -84.2549019, "category": "cosmetics", "store_id": 174 }, "geometry": { "type": "Point", "coordinates": [ -84.2549019, 33.8495209 ] } },
{ "type": "Feature", "properties": { "name": "Evolve Parfumery Place", "address": "", "city": "", "state": "NC", "zip": "", "lat": 33.8495045, "lon": -84.2549329, "category": "perfumery", "store_id": 175 }, "geometry": { "type": "Point", "coordinates": [ -84.2549329, 33.8495045 ] } },
{ "type": "Feature", "properties": { "name": "Sally Beauty", "address": "", "city": "", "state": "NC", "zip": "", "lat": 33.8557453, "lon": -84.2061486, "category": "hairdresser_supply", "store_id": 176 }, "geometry": { "type": "Point", "coordinates": [ -84.2061486, 33.8557453 ] } },
{ "type": "Feature", "properties": { "name": "Sephora", "address": "", "city": "", "state": "NC", "zip": "", "lat": 35.3700703, "lon": -80.7230284, "category": "cosmetics", "store_id": 177 }, "geometry": { "type": "Point", "coordinates": [ -80.7230284, 35.3700703 ] } },
{ "type": "Feature", "properties": { "name": "Merle Norman", "address": "", "city": "", "state": "NC", "zip": "", "lat": 34.122719, "lon": -80.8754947, "category": "cosmetics", "store_id": 178 }, "geometry": { "type": "Point", "coordinates": [ -80.875494700000019, 34.122719 ] } },
{ "type": "Feature", "properties": { "name": "Sally Beauty", "address": "", "city": "", "state": "NC", "zip": "", "lat": 34.1146093, "lon": -80.8828624, "category": "hairdresser_supply", "store_id": 179 }, "geometry": { "type": "Point", "coordinates": [ -80.8828624, 34.1146093 ] } },
{ "type": "Feature", "properties": { "name": "GNC", "address": "", "city": "", "state": "NC", "zip": "", "lat": 35.3417174, "lon": -80.7654608, "category": "cosmetics", "store_id": 180 }, "geometry": { "type": "Point", "coordinates": [ -80.7654608, 35.3417174 ] } },
{ "type": "Feature", "properties": { "name": "Sally Beauty", "address": "", "city": "", "state": "NC", "zip": "", "lat": 33.9048046, "lon": -84.1206061, "category": "hairdresser_supply", "store_id": 181 }, "geometry": { "type": "Point", "coordinates": [ -84.1206061, 33.9048046 ] } },
{ "type": "Feature", "properties": { "name": "US Beauty & Wigs", "address": "", "city": "", "state": "NC", "zip": "", "lat": 33.9351801, "lon": -84.027908, "category": "beauty", "store_id": 182 }, "geometry": { "type": "Point", "coordinates": [ -84.027908, 33.9351801 ] } },
{ "type": "Feature", "properties": { "name": "Perfumania", "address": "", "city": "", "state": "NC", "zip": "", "lat": 35.8313354, "lon": -83.5708451, "category": "perfumery", "store_id": 183 }, "geometry": { "type": "Point", "coordinates": [ -83.5708451, 35.8313354 ] } },
{ "type": "Feature", "properties": { "name": "Bath & Body Works", "address": "", "city": "", "state": "NC", "zip": "", "lat": 35.8318552, "lon": -83.5701465, "category": "cosmetics", "store_id": 184 }, "geometry": { "type": "Point", "coordinates": [ -83.5701465, 35.8318552 ] } },
{ "type": "Feature", "properties": { "name": "Euphoria Progressive Beauty", "address": "406 Roy Martin Road", "city": "", "state": "NC", "zip": "", "lat": 36.4191976, "lon": -82.4705144, "category": "cosmetics", "store_id": 185 }, "geometry": { "type": "Point", "coordinates": [ -82.4705144, 36.4191976 ] } },
{ "type": "Feature", "properties": { "name": "Sally Beauty", "address": "3370 Sugarloaf Parkway", "city": "Lawrenceville", "state": "GA", "zip": "30044", "lat": 33.9219487, "lon": -84.0183225, "category": "hairdresser_supply", "store_id": 186 }, "geometry": { "type": "Point", "coordinates": [ -84.0183225, 33.9219487 ] } },
{ "type": "Feature", "properties": { "name": "Bath & Body Works", "address": "1027 Spring Lane", "city": "Sanford", "state": "NC", "zip": "27330", "lat": 35.4840149, "lon": -79.2001335, "category": "cosmetics", "store_id": 187 }, "geometry": { "type": "Point", "coordinates": [ -79.2001335, 35.4840149 ] } },
{ "type": "Feature", "properties": { "name": "Bath & Body Works", "address": "", "city": "", "state": "NC", "zip": "", "lat": 33.8786286, "lon": -84.0132661, "category": "cosmetics", "store_id": 188 }, "geometry": { "type": "Point", "coordinates": [ -84.0132661, 33.8786286 ] } },
{ "type": "Feature", "properties": { "name": "Beauty In Me Boutique Beauty Supply Store", "address": "1547 East Market Street", "city": "Smithfield", "state": "NC", "zip": "27577", "lat": 35.5062874, "lon": -78.3297147, "category": "beauty", "store_id": 189 }, "geometry": { "type": "Point", "coordinates": [ -78.3297147, 35.5062874 ] } },
{ "type": "Feature", "properties": { "name": "My Supply Guy", "address": "3580 Breckinridge Boulevard", "city": "Duluth", "state": "GA", "zip": "30096", "lat": 33.9500106, "lon": -84.1267135, "category": "hairdresser_supply", "store_id": 190 }, "geometry": { "type": "Point", "coordinates": [ -84.1267135, 33.9500106 ] } },
{ "type": "Feature", "properties": { "name": "Kum's Beauty Supply", "address": "401 North Avenue", "city": "Athens", "state": "NC", "zip": "30601", "lat": 33.9768722, "lon": -83.3649987, "category": "beauty", "store_id": 191 }, "geometry": { "type": "Point", "coordinates": [ -83.3649987, 33.9768722 ] } },
{ "type": "Feature", "properties": { "name": "Kim's Beauty Supply", "address": "", "city": "", "state": "NC", "zip": "", "lat": 34.0970725, "lon": -80.9232863, "category": "beauty", "store_id": 192 }, "geometry": { "type": "Point", "coordinates": [ -80.9232863, 34.0970725 ] } },
{ "type": "Feature", "properties": { "name": "Ulta Beauty", "address": "3124 North Pleasantburg Drive", "city": "Greenville", "state": "SC", "zip": "29609", "lat": 34.8896817, "lon": -82.3967453, "category": "cosmetics", "store_id": 193 }, "geometry": { "type": "Point", "coordinates": [ -82.3967453, 34.8896817 ] } },
{ "type": "Feature", "properties": { "name": "Ulta Beauty", "address": "174 Brucewood Road", "city": "Southern Pines", "state": "NC", "zip": "28387", "lat": 35.1712841, "lon": -79.4213288, "category": "cosmetics", "store_id": 194 }, "geometry": { "type": "Point", "coordinates": [ -79.4213288, 35.1712841 ] } },
{ "type": "Feature", "properties": { "name": "RAJ Beauty Supply", "address": "3190 Atlanta Highway", "city": "Athens", "state": "NC", "zip": "30606", "lat": 33.9425874, "lon": -83.4475329, "category": "beauty", "store_id": 195 }, "geometry": { "type": "Point", "coordinates": [ -83.4475329, 33.9425874 ] } },
{ "type": "Feature", "properties": { "name": "Sunny Beauty Supply", "address": "4064 Lexington Road", "city": "Athens", "state": "NC", "zip": "30605", "lat": 33.9366951, "lon": -83.3229307, "category": "beauty", "store_id": 196 }, "geometry": { "type": "Point", "coordinates": [ -83.3229307, 33.9366951 ] } },
{ "type": "Feature", "properties": { "name": "Sephora", "address": "196 Alps Road", "city": "Athens", "state": "NC", "zip": "30606", "lat": 33.9470857, "lon": -83.4100224, "category": "cosmetics", "store_id": 197 }, "geometry": { "type": "Point", "coordinates": [ -83.4100224, 33.9470857 ] } },
{ "type": "Feature", "properties": { "name": "In It Beauty Supply", "address": "400 Hawthorne Avenue", "city": "Athens", "state": "NC", "zip": "30606", "lat": 33.9556516, "lon": -83.4116251, "category": "beauty", "store_id": 198 }, "geometry": { "type": "Point", "coordinates": [ -83.4116251, 33.9556516 ] } },
{ "type": "Feature", "properties": { "name": "Bath & Body Works", "address": "196 Alps Road", "city": "Athens", "state": "NC", "zip": "30606", "lat": 33.944786, "lon": -83.411019, "category": "cosmetics", "store_id": 199 }, "geometry": { "type": "Point", "coordinates": [ -83.411019, 33.944786 ] } },
{ "type": "Feature", "properties": { "name": "Joy Joy Beauty Supply", "address": "224 Hawthorne Avenue", "city": "Athens", "state": "NC", "zip": "30606", "lat": 33.9519303, "lon": -83.4097047, "category": "beauty", "store_id": 200 }, "geometry": { "type": "Point", "coordinates": [ -83.4097047, 33.9519303 ] } },
{ "type": "Feature", "properties": { "name": "Beauty World", "address": "1721 West Cumberland Street", "city": "Dunn", "state": "NC", "zip": "28334", "lat": 35.315927, "lon": -78.6269471, "category": "beauty", "store_id": 201 }, "geometry": { "type": "Point", "coordinates": [ -78.6269471, 35.315927 ] } },
{ "type": "Feature", "properties": { "name": "Sally Beauty Supply", "address": "2085", "city": "", "state": "NC", "zip": "", "lat": 34.7807777, "lon": -77.391202, "category": "beauty", "store_id": 202 }, "geometry": { "type": "Point", "coordinates": [ -77.391202, 34.7807777 ] } },
{ "type": "Feature", "properties": { "name": "Ulta Beauty", "address": "749 Main Street West", "city": "Oak RIdge", "state": "TN", "zip": "37830", "lat": 36.0102584, "lon": -84.2557544, "category": "cosmetics", "store_id": 203 }, "geometry": { "type": "Point", "coordinates": [ -84.2557544, 36.0102584 ] } },
{ "type": "Feature", "properties": { "name": "SALLY Beauty", "address": "1179 Oak Ridge Turnpike", "city": "Oak Ridge", "state": "TN", "zip": "37830", "lat": 36.0177022, "lon": -84.2472279, "category": "beauty", "store_id": 204 }, "geometry": { "type": "Point", "coordinates": [ -84.2472279, 36.0177022 ] } },
{ "type": "Feature", "properties": { "name": "Ulta Beauty", "address": "2059 Scenic Highway North", "city": "Snellville", "state": "GA", "zip": "30078", "lat": 33.8657003, "lon": -84.0179239, "category": "beauty", "store_id": 205 }, "geometry": { "type": "Point", "coordinates": [ -84.0179239, 33.8657003 ] } },
{ "type": "Feature", "properties": { "name": "Unnamed beauty store", "address": "110-K Cotton Grove Road", "city": "Lexington", "state": "NC", "zip": "27292", "lat": 35.8122732, "lon": -80.2609316, "category": "cosmetics", "store_id": 206 }, "geometry": { "type": "Point", "coordinates": [ -80.2609316, 35.8122732 ] } },
{ "type": "Feature", "properties": { "name": "Discount Beauty Supply", "address": "426 Saluda Street", "city": "Rock Hill", "state": "SC", "zip": "29730", "lat": 34.9197512, "lon": -81.0272384, "category": "hairdresser_supply", "store_id": 207 }, "geometry": { "type": "Point", "coordinates": [ -81.027238400000016, 34.9197512 ] } },
{ "type": "Feature", "properties": { "name": "Buff City Soap", "address": "3334 West Friendly Avenue", "city": "", "state": "NC", "zip": "", "lat": 36.0872697, "lon": -79.8389445, "category": "cosmetics", "store_id": 208 }, "geometry": { "type": "Point", "coordinates": [ -79.8389445, 36.087269699999986 ] } },
{ "type": "Feature", "properties": { "name": "Sun Beauty Supply", "address": "", "city": "", "state": "NC", "zip": "", "lat": 33.9376598, "lon": -84.0176333, "category": "beauty", "store_id": 209 }, "geometry": { "type": "Point", "coordinates": [ -84.0176333, 33.9376598 ] } },
{ "type": "Feature", "properties": { "name": "NU DIMENSION BEAUTY SUPPLY", "address": "6307 Burlington Road", "city": "Whitsett", "state": "NC", "zip": "27377", "lat": 36.0645962, "lon": -79.6076263, "category": "beauty", "store_id": 210 }, "geometry": { "type": "Point", "coordinates": [ -79.6076263, 36.0645962 ] } },
{ "type": "Feature", "properties": { "name": "Kim's Enterprises Beauty Supply", "address": "", "city": "", "state": "NC", "zip": "", "lat": 34.0697908, "lon": -80.9510217, "category": "cosmetics", "store_id": 211 }, "geometry": { "type": "Point", "coordinates": [ -80.9510217, 34.0697908 ] } },
{ "type": "Feature", "properties": { "name": "Ulta Beauty", "address": "2455 Market Center Drive", "city": "Clemmons", "state": "NC", "zip": "27012", "lat": 36.0322751, "lon": -80.3810954, "category": "beauty", "store_id": 212 }, "geometry": { "type": "Point", "coordinates": [ -80.3810954, 36.0322751 ] } },
{ "type": "Feature", "properties": { "name": "K Discount Beauty Supply", "address": "2520 Lee Avenue", "city": "Sanford", "state": "NC", "zip": "27332", "lat": 35.4556377, "lon": -79.1528749, "category": "beauty", "store_id": 213 }, "geometry": { "type": "Point", "coordinates": [ -79.1528749, 35.4556377 ] } },
{ "type": "Feature", "properties": { "name": "Ginaug Beauty Supply", "address": "", "city": "", "state": "NC", "zip": "", "lat": 33.9276454, "lon": -84.0592122, "category": "beauty", "store_id": 214 }, "geometry": { "type": "Point", "coordinates": [ -84.0592122, 33.9276454 ] } },
{ "type": "Feature", "properties": { "name": "LV Beauty Supply", "address": "", "city": "", "state": "NC", "zip": "", "lat": 33.9652298, "lon": -83.9856472, "category": "beauty", "store_id": 215 }, "geometry": { "type": "Point", "coordinates": [ -83.9856472, 33.9652298 ] } },
{ "type": "Feature", "properties": { "name": "Mad Flavors Beauty Supplies", "address": "2210 Statesville Boulevard", "city": "Salisbury", "state": "NC", "zip": "28147", "lat": 35.6960178, "lon": -80.5203775, "category": "hairdresser_supply", "store_id": 216 }, "geometry": { "type": "Point", "coordinates": [ -80.5203775, 35.6960178 ] } },
{ "type": "Feature", "properties": { "name": "Merle Norman", "address": "1945 Jake Alexander Boulevard West", "city": "Salisbury", "state": "NC", "zip": "28147", "lat": 35.6928166, "lon": -80.5129621, "category": "cosmetics", "store_id": 217 }, "geometry": { "type": "Point", "coordinates": [ -80.5129621, 35.6928166 ] } },
{ "type": "Feature", "properties": { "name": "Ashley Beauty Supply", "address": "225 West College Street", "city": "Warsaw", "state": "NC", "zip": "28398", "lat": 34.9979347, "lon": -78.0957734, "category": "beauty", "store_id": 218 }, "geometry": { "type": "Point", "coordinates": [ -78.0957734, 34.9979347 ] } },
{ "type": "Feature", "properties": { "name": "Merle Norman", "address": "", "city": "", "state": "NC", "zip": "", "lat": 34.2842451, "lon": -81.593029, "category": "cosmetics", "store_id": 219 }, "geometry": { "type": "Point", "coordinates": [ -81.593029, 34.2842451 ] } },
{ "type": "Feature", "properties": { "name": "Avon", "address": "", "city": "", "state": "NC", "zip": "", "lat": 34.2462796, "lon": -80.6064304, "category": "cosmetics", "store_id": 220 }, "geometry": { "type": "Point", "coordinates": [ -80.6064304, 34.2462796 ] } },
{ "type": "Feature", "properties": { "name": "Cosmos Beauty Supply", "address": "", "city": "", "state": "NC", "zip": "", "lat": 34.2454129, "lon": -80.6068356, "category": "beauty", "store_id": 221 }, "geometry": { "type": "Point", "coordinates": [ -80.6068356, 34.2454129 ] } },
{ "type": "Feature", "properties": { "name": "bluemercury", "address": "4247 Park Road", "city": "Charlotte", "state": "NC", "zip": "28209", "lat": 35.1739082, "lon": -80.8480363, "category": "cosmetics", "store_id": 222 }, "geometry": { "type": "Point", "coordinates": [ -80.8480363, 35.1739082 ] } },
{ "type": "Feature", "properties": { "name": "Sally Beauty", "address": "", "city": "", "state": "NC", "zip": "", "lat": 36.2954668, "lon": -76.2998726, "category": "hairdresser_supply", "store_id": 223 }, "geometry": { "type": "Point", "coordinates": [ -76.2998726, 36.2954668 ] } },
{ "type": "Feature", "properties": { "name": "Venus Beauty Supply", "address": "2345 East North Street", "city": "Greenville", "state": "SC", "zip": "29615", "lat": 34.8702014, "lon": -82.3552424, "category": "beauty", "store_id": 224 }, "geometry": { "type": "Point", "coordinates": [ -82.3552424, 34.8702014 ] } },
{ "type": "Feature", "properties": { "name": "Newberry Beauty Supply", "address": "", "city": "", "state": "NC", "zip": "", "lat": 34.284646, "lon": -81.5955733, "category": "hairdresser_supply", "store_id": 225 }, "geometry": { "type": "Point", "coordinates": [ -81.5955733, 34.284646 ] } },
{ "type": "Feature", "properties": { "name": "Beautix Beauty Supply", "address": "", "city": "", "state": "NC", "zip": "", "lat": 34.1886042, "lon": -84.1420488, "category": "beauty", "store_id": 226 }, "geometry": { "type": "Point", "coordinates": [ -84.1420488, 34.1886042 ] } },
{ "type": "Feature", "properties": { "name": "Ulta Beauty", "address": "3630 Peachtree Parkway", "city": "Suwanee", "state": "GA", "zip": "30024", "lat": 34.0691991, "lon": -84.1710867, "category": "beauty", "store_id": 227 }, "geometry": { "type": "Point", "coordinates": [ -84.1710867, 34.0691991 ] } },
{ "type": "Feature", "properties": { "name": "Sally Beauty", "address": "", "city": "", "state": "NC", "zip": "", "lat": 35.7168704, "lon": -84.0111252, "category": "hairdresser_supply", "store_id": 228 }, "geometry": { "type": "Point", "coordinates": [ -84.0111252, 35.7168704 ] } },
{ "type": "Feature", "properties": { "name": "Ulta Beauty", "address": "6710 Papermill Drive Northwest", "city": "Knoxville", "state": "TN", "zip": "37919", "lat": 35.9335979, "lon": -84.0150222, "category": "beauty", "store_id": 229 }, "geometry": { "type": "Point", "coordinates": [ -84.0150222, 35.9335979 ] } },
{ "type": "Feature", "properties": { "name": "Sally Beauty", "address": "", "city": "", "state": "NC", "zip": "", "lat": 36.1867159, "lon": -82.7579182, "category": "hairdresser_supply", "store_id": 230 }, "geometry": { "type": "Point", "coordinates": [ -82.7579182, 36.1867159 ] } },
{ "type": "Feature", "properties": { "name": "Bath & Body Works", "address": "861 Washington Square Mall", "city": "Washington", "state": "NC", "zip": "27889", "lat": 35.5596681, "lon": -77.0578174, "category": "cosmetics", "store_id": 231 }, "geometry": { "type": "Point", "coordinates": [ -77.0578174, 35.559668099999989 ] } },
{ "type": "Feature", "properties": { "name": "Bath & Body Works", "address": "", "city": "", "state": "NC", "zip": "", "lat": 33.9169739, "lon": -83.4558675, "category": "cosmetics", "store_id": 232 }, "geometry": { "type": "Point", "coordinates": [ -83.4558675, 33.9169739 ] } },
{ "type": "Feature", "properties": { "name": "CosmoProf", "address": "", "city": "", "state": "NC", "zip": "", "lat": 33.9369225, "lon": -83.4546767, "category": "hairdresser_supply", "store_id": 233 }, "geometry": { "type": "Point", "coordinates": [ -83.4546767, 33.9369225 ] } },
{ "type": "Feature", "properties": { "name": "Unique Beauty Supply", "address": "", "city": "", "state": "NC", "zip": "", "lat": 35.7319133, "lon": -78.5599601, "category": "hairdresser_supply", "store_id": 234 }, "geometry": { "type": "Point", "coordinates": [ -78.5599601, 35.7319133 ] } },
{ "type": "Feature", "properties": { "name": "Ulta Beauty", "address": "6923 Fayetteville Road", "city": "Durham", "state": "NC", "zip": "27713", "lat": 35.9030133, "lon": -78.936862, "category": "beauty", "store_id": 235 }, "geometry": { "type": "Point", "coordinates": [ -78.936862, 35.9030133 ] } },
{ "type": "Feature", "properties": { "name": "Fabulous Beauty Supply 2", "address": "1459 South Boston Road", "city": "Danville", "state": "VA", "zip": "24540", "lat": 36.5824611, "lon": -79.3380055, "category": "cosmetics", "store_id": 236 }, "geometry": { "type": "Point", "coordinates": [ -79.3380055, 36.5824611 ] } },
{ "type": "Feature", "properties": { "name": "NC Beauty Outlet", "address": "1517 Glen School Road", "city": "", "state": "NC", "zip": "", "lat": 36.0273501, "lon": -78.8416154, "category": "cosmetics", "store_id": 237 }, "geometry": { "type": "Point", "coordinates": [ -78.8416154, 36.0273501 ] } },
{ "type": "Feature", "properties": { "name": "J1 Beauty Supply", "address": "10014 Albemarle Road", "city": "Charlotte", "state": "NC", "zip": "28227", "lat": 35.2082849, "lon": -80.6741211, "category": "beauty", "store_id": 238 }, "geometry": { "type": "Point", "coordinates": [ -80.6741211, 35.208284899999988 ] } },
{ "type": "Feature", "properties": { "name": "Ulta Beauty", "address": "1564 US Highway 17 North", "city": "North Myrtle Beach", "state": "SC", "zip": "29582", "lat": 33.841602, "lon": -78.6580163, "category": "cosmetics", "store_id": 239 }, "geometry": { "type": "Point", "coordinates": [ -78.6580163, 33.841602 ] } },
{ "type": "Feature", "properties": { "name": "Sally Beauty", "address": "554 US Highway 17 North", "city": "North Myrtle Beach", "state": "SC", "zip": "29582", "lat": 33.8304576, "lon": -78.6709039, "category": "hairdresser_supply", "store_id": 240 }, "geometry": { "type": "Point", "coordinates": [ -78.670903900000013, 33.8304576 ] } },
{ "type": "Feature", "properties": { "name": "Sally Beauty", "address": "", "city": "", "state": "NC", "zip": "", "lat": 36.0031696, "lon": -79.797177, "category": "hairdresser_supply", "store_id": 241 }, "geometry": { "type": "Point", "coordinates": [ -79.797177, 36.0031696 ] } },
{ "type": "Feature", "properties": { "name": "The Lavender Cottage & Garden", "address": "", "city": "", "state": "NC", "zip": "", "lat": 34.6845737, "lon": -83.6749288, "category": "cosmetics", "store_id": 242 }, "geometry": { "type": "Point", "coordinates": [ -83.6749288, 34.6845737 ] } },
{ "type": "Feature", "properties": { "name": "Bath & Body Works", "address": "", "city": "", "state": "NC", "zip": "", "lat": 34.0482178, "lon": -84.2941717, "category": "cosmetics", "store_id": 243 }, "geometry": { "type": "Point", "coordinates": [ -84.2941717, 34.04821780000001 ] } },
{ "type": "Feature", "properties": { "name": "Bath & Body Works", "address": "", "city": "", "state": "NC", "zip": "", "lat": 36.3327892, "lon": -78.4442987, "category": "cosmetics", "store_id": 244 }, "geometry": { "type": "Point", "coordinates": [ -78.4442987, 36.3327892 ] } },
{ "type": "Feature", "properties": { "name": "Bath & Body Works", "address": "", "city": "", "state": "NC", "zip": "", "lat": 36.0744366, "lon": -79.2669974, "category": "cosmetics", "store_id": 245 }, "geometry": { "type": "Point", "coordinates": [ -79.2669974, 36.0744366 ] } },
{ "type": "Feature", "properties": { "name": "Sephora", "address": "", "city": "", "state": "NC", "zip": "", "lat": 35.7811607, "lon": -78.7580304, "category": "cosmetics", "store_id": 246 }, "geometry": { "type": "Point", "coordinates": [ -78.7580304, 35.7811607 ] } },
{ "type": "Feature", "properties": { "name": "Gifted Cosmetics Store", "address": "", "city": "", "state": "NC", "zip": "", "lat": 34.0100823, "lon": -83.8231759, "category": "cosmetics", "store_id": 247 }, "geometry": { "type": "Point", "coordinates": [ -83.8231759, 34.0100823 ] } },
{ "type": "Feature", "properties": { "name": "Sally Beauty", "address": "", "city": "", "state": "NC", "zip": "", "lat": 33.9433394, "lon": -83.7538233, "category": "hairdresser_supply", "store_id": 248 }, "geometry": { "type": "Point", "coordinates": [ -83.7538233, 33.9433394 ] } },
{ "type": "Feature", "properties": { "name": "Bath & Body Works", "address": "", "city": "", "state": "NC", "zip": "", "lat": 33.9426458, "lon": -83.7507539, "category": "cosmetics", "store_id": 249 }, "geometry": { "type": "Point", "coordinates": [ -83.7507539, 33.9426458 ] } },
{ "type": "Feature", "properties": { "name": "Sally Beauty", "address": "", "city": "", "state": "NC", "zip": "", "lat": 34.7337262, "lon": -80.7871233, "category": "hairdresser_supply", "store_id": 250 }, "geometry": { "type": "Point", "coordinates": [ -80.7871233, 34.7337262 ] } },
{ "type": "Feature", "properties": { "name": "Ulta Beauty", "address": "713 Winfield Dunn Parkway", "city": "Sevierville", "state": "TN", "zip": "37876", "lat": 35.8808981, "lon": -83.5705517, "category": "beauty", "store_id": 251 }, "geometry": { "type": "Point", "coordinates": [ -83.5705517, 35.8808981 ] } },
{ "type": "Feature", "properties": { "name": "Sephora", "address": "2036 South Boulevard", "city": "Charlotte", "state": "NC", "zip": "28203", "lat": 35.2084514, "lon": -80.8607047, "category": "cosmetics", "store_id": 252 }, "geometry": { "type": "Point", "coordinates": [ -80.8607047, 35.2084514 ] } },
{ "type": "Feature", "properties": { "name": "Ulta Beauty", "address": "4 McKenna Road", "city": "Arden", "state": "NC", "zip": "28704", "lat": 35.4464274, "lon": -82.5352904, "category": "beauty", "store_id": 253 }, "geometry": { "type": "Point", "coordinates": [ -82.5352904, 35.4464274 ] } },
{ "type": "Feature", "properties": { "name": "Lush", "address": "3334 West Friendly Avenue", "city": "", "state": "NC", "zip": "", "lat": 36.0868481, "lon": -79.8386155, "category": "cosmetics", "store_id": 254 }, "geometry": { "type": "Point", "coordinates": [ -79.8386155, 36.0868481 ] } },
{ "type": "Feature", "properties": { "name": "Ulta Beauty", "address": "", "city": "", "state": "NC", "zip": "", "lat": 35.3769081, "lon": -77.9429592, "category": "beauty", "store_id": 255 }, "geometry": { "type": "Point", "coordinates": [ -77.9429592, 35.3769081 ] } },
{ "type": "Feature", "properties": { "name": "Kiehl's", "address": "", "city": "", "state": "NC", "zip": "", "lat": 35.2207015, "lon": -80.9421771, "category": "cosmetics", "store_id": 256 }, "geometry": { "type": "Point", "coordinates": [ -80.9421771, 35.2207015 ] } },
{ "type": "Feature", "properties": { "name": "Aloe Vera Cosmetics", "address": "101 Eagles View Ct", "city": "Easley", "state": "SC", "zip": "29642", "lat": 34.8092888, "lon": -82.6120515, "category": "cosmetics", "store_id": 257 }, "geometry": { "type": "Point", "coordinates": [ -82.6120515, 34.8092888 ] } },
{ "type": "Feature", "properties": { "name": "Sally Beauty", "address": "8079 Kingston Pike", "city": "Knoxville", "state": "NC", "zip": "37919", "lat": 35.9261034, "lon": -84.0498516, "category": "hairdresser_supply", "store_id": 258 }, "geometry": { "type": "Point", "coordinates": [ -84.0498516, 35.9261034 ] } },
{ "type": "Feature", "properties": { "name": "Sally Beauty", "address": "2633 Lawndale Drive", "city": "", "state": "NC", "zip": "", "lat": 36.1026424, "lon": -79.8210806, "category": "hairdresser_supply", "store_id": 259 }, "geometry": { "type": "Point", "coordinates": [ -79.8210806, 36.1026424 ] } },
{ "type": "Feature", "properties": { "name": "Sally Beauty", "address": "541 Lakeland Plaza", "city": "", "state": "NC", "zip": "", "lat": 34.1852544, "lon": -84.1442765, "category": "hairdresser_supply", "store_id": 260 }, "geometry": { "type": "Point", "coordinates": [ -84.1442765, 34.1852544 ] } },
{ "type": "Feature", "properties": { "name": "Bath & Body Works", "address": "", "city": "", "state": "NC", "zip": "", "lat": 36.058784, "lon": -79.9054457, "category": "cosmetics", "store_id": 261 }, "geometry": { "type": "Point", "coordinates": [ -79.9054457, 36.058784 ] } },
{ "type": "Feature", "properties": { "name": "Sephora", "address": "1210 Bridford Parkway", "city": "", "state": "NC", "zip": "", "lat": 36.0582169, "lon": -79.9073459, "category": "cosmetics", "store_id": 262 }, "geometry": { "type": "Point", "coordinates": [ -79.9073459, 36.058216899999984 ] } },
{ "type": "Feature", "properties": { "name": "Kima Beauty Supply", "address": "", "city": "", "state": "NC", "zip": "", "lat": 36.1139576, "lon": -79.8361821, "category": "beauty", "store_id": 263 }, "geometry": { "type": "Point", "coordinates": [ -79.8361821, 36.1139576 ] } },
{ "type": "Feature", "properties": { "name": "Charm Beauty Supply", "address": "4645 West Market Street", "city": "", "state": "NC", "zip": "", "lat": 36.068664, "lon": -79.8661792, "category": "beauty", "store_id": 264 }, "geometry": { "type": "Point", "coordinates": [ -79.8661792, 36.068664 ] } },
{ "type": "Feature", "properties": { "name": "Star Beauty Supply", "address": "2566 Shallowford Road Northeast", "city": "", "state": "NC", "zip": "", "lat": 33.8627344, "lon": -84.2884668, "category": "hairdresser_supply", "store_id": 265 }, "geometry": { "type": "Point", "coordinates": [ -84.2884668, 33.8627344 ] } },
{ "type": "Feature", "properties": { "name": "Twin's Beauty Supply", "address": "4616 West Market Street", "city": "", "state": "NC", "zip": "", "lat": 36.07144, "lon": -79.8635157, "category": "beauty", "store_id": 266 }, "geometry": { "type": "Point", "coordinates": [ -79.8635157, 36.07144 ] } },
{ "type": "Feature", "properties": { "name": "Amalay Beauty Supply", "address": "", "city": "", "state": "NC", "zip": "", "lat": 35.1860189, "lon": -80.8761185, "category": "beauty", "store_id": 267 }, "geometry": { "type": "Point", "coordinates": [ -80.8761185, 35.1860189 ] } },
{ "type": "Feature", "properties": { "name": "Buy Wise Beauty Supply", "address": "", "city": "", "state": "NC", "zip": "", "lat": 35.2637631, "lon": -80.8548831, "category": "beauty", "store_id": 268 }, "geometry": { "type": "Point", "coordinates": [ -80.8548831, 35.2637631 ] } },
{ "type": "Feature", "properties": { "name": "Bath & Body Works", "address": "", "city": "", "state": "NC", "zip": "", "lat": 34.5391929, "lon": -82.6717621, "category": "cosmetics", "store_id": 269 }, "geometry": { "type": "Point", "coordinates": [ -82.6717621, 34.5391929 ] } },
{ "type": "Feature", "properties": { "name": "Sally Beauty", "address": "14045 Independence Boulevard", "city": "Indian Trail", "state": "NC", "zip": "28079", "lat": 35.0777214, "lon": -80.6532643, "category": "hairdresser_supply", "store_id": 270 }, "geometry": { "type": "Point", "coordinates": [ -80.6532643, 35.0777214 ] } },
{ "type": "Feature", "properties": { "name": "Sephora", "address": "3130 Avalon Boulevard", "city": "", "state": "NC", "zip": "", "lat": 34.0709786, "lon": -84.2774485, "category": "cosmetics", "store_id": 271 }, "geometry": { "type": "Point", "coordinates": [ -84.2774485, 34.0709786 ] } },
{ "type": "Feature", "properties": { "name": "Sephora", "address": "", "city": "", "state": "NC", "zip": "", "lat": 34.0482784, "lon": -84.293891, "category": "cosmetics", "store_id": 272 }, "geometry": { "type": "Point", "coordinates": [ -84.293891, 34.0482784 ] } },
{ "type": "Feature", "properties": { "name": "Beauty Supply Outlet", "address": "932 Summit Avenue", "city": "", "state": "NC", "zip": "", "lat": 36.0844473, "lon": -79.7761088, "category": "beauty", "store_id": 273 }, "geometry": { "type": "Point", "coordinates": [ -79.7761088, 36.0844473 ] } },
{ "type": "Feature", "properties": { "name": "Sephora At Kohl’s", "address": "302 Hinton Oaks Boulevard", "city": "Knightdale", "state": "NC", "zip": "27545", "lat": 35.7992841, "lon": -78.5124476, "category": "cosmetics", "store_id": 274 }, "geometry": { "type": "Point", "coordinates": [ -78.5124476, 35.7992841 ] } },
{ "type": "Feature", "properties": { "name": "ArKay Beauty Supply", "address": "", "city": "", "state": "NC", "zip": "", "lat": 35.3108899, "lon": -80.7456029, "category": "beauty", "store_id": 275 }, "geometry": { "type": "Point", "coordinates": [ -80.7456029, 35.3108899 ] } },
{ "type": "Feature", "properties": { "name": "Ulta Beauty", "address": "11233 Parkside Drive", "city": "Knoxville", "state": "TN", "zip": "37934", "lat": 35.9010112, "lon": -84.1566946, "category": "cosmetics", "store_id": 276 }, "geometry": { "type": "Point", "coordinates": [ -84.1566946, 35.9010112 ] } },
{ "type": "Feature", "properties": { "name": "Beauty World Discount", "address": "3210 South Wilmington Street", "city": "Raleigh", "state": "NC", "zip": "27603", "lat": 35.736593, "lon": -78.651608, "category": "beauty", "store_id": 277 }, "geometry": { "type": "Point", "coordinates": [ -78.651608, 35.736593 ] } },
{ "type": "Feature", "properties": { "name": "Woo Skincare & Cosmetics", "address": "", "city": "", "state": "NC", "zip": "", "lat": 35.1739379, "lon": -80.84038, "category": "cosmetics", "store_id": 278 }, "geometry": { "type": "Point", "coordinates": [ -80.84038, 35.1739379 ] } },
{ "type": "Feature", "properties": { "name": "Fashion News Beauty Supply", "address": "", "city": "", "state": "NC", "zip": "", "lat": 33.9758696, "lon": -83.3619403, "category": "beauty", "store_id": 279 }, "geometry": { "type": "Point", "coordinates": [ -83.3619403, 33.9758696 ] } },
{ "type": "Feature", "properties": { "name": "Oxford Perfume and Jewelry", "address": "", "city": "", "state": "NC", "zip": "", "lat": 34.2094892, "lon": -82.1782871, "category": "perfumery", "store_id": 280 }, "geometry": { "type": "Point", "coordinates": [ -82.1782871, 34.2094892 ] } },
{ "type": "Feature", "properties": { "name": "CosmoProf", "address": "", "city": "", "state": "NC", "zip": "", "lat": 35.1546267, "lon": -80.8752308, "category": "hairdresser_supply", "store_id": 281 }, "geometry": { "type": "Point", "coordinates": [ -80.8752308, 35.1546267 ] } },
{ "type": "Feature", "properties": { "name": "Sally Beauty", "address": "", "city": "", "state": "NC", "zip": "", "lat": 35.1553407, "lon": -80.8752145, "category": "hairdresser_supply", "store_id": 282 }, "geometry": { "type": "Point", "coordinates": [ -80.8752145, 35.1553407 ] } },
{ "type": "Feature", "properties": { "name": "Sally Beauty", "address": "910C North Spence Avenue", "city": "", "state": "NC", "zip": "27534", "lat": 35.3850569, "lon": -77.9463352, "category": "beauty", "store_id": 283 }, "geometry": { "type": "Point", "coordinates": [ -77.9463352, 35.3850569 ] } },
{ "type": "Feature", "properties": { "name": "CosmoProf", "address": "", "city": "", "state": "NC", "zip": "", "lat": 34.1888663, "lon": -84.1431119, "category": "hairdresser_supply", "store_id": 284 }, "geometry": { "type": "Point", "coordinates": [ -84.1431119, 34.1888663 ] } },
{ "type": "Feature", "properties": { "name": "Perfume World", "address": "", "city": "", "state": "NC", "zip": "", "lat": 33.8957535, "lon": -84.2814545, "category": "perfumery", "store_id": 285 }, "geometry": { "type": "Point", "coordinates": [ -84.2814545, 33.8957535 ] } },
{ "type": "Feature", "properties": { "name": "Paris Perfume", "address": "", "city": "", "state": "NC", "zip": "", "lat": 34.0487883, "lon": -84.2941526, "category": "perfumery", "store_id": 286 }, "geometry": { "type": "Point", "coordinates": [ -84.2941526, 34.0487883 ] } },
{ "type": "Feature", "properties": { "name": "The Cosmetics Company Store", "address": "4000 Arrowhead Boulevard", "city": "", "state": "NC", "zip": "", "lat": 36.0738362, "lon": -79.2668299, "category": "cosmetics", "store_id": 287 }, "geometry": { "type": "Point", "coordinates": [ -79.2668299, 36.0738362 ] } },
{ "type": "Feature", "properties": { "name": "Merle Norman", "address": "", "city": "", "state": "NC", "zip": "", "lat": 35.8667848, "lon": -83.5693647, "category": "cosmetics", "store_id": 288 }, "geometry": { "type": "Point", "coordinates": [ -83.5693647, 35.8667848 ] } },
{ "type": "Feature", "properties": { "name": "Bath & Body Works", "address": "", "city": "", "state": "NC", "zip": "", "lat": 35.885252, "lon": -83.5763203, "category": "cosmetics", "store_id": 289 }, "geometry": { "type": "Point", "coordinates": [ -83.5763203, 35.885252 ] } },
{ "type": "Feature", "properties": { "name": "Bath & Body Works", "address": "", "city": "", "state": "NC", "zip": "", "lat": 34.3583084, "lon": -84.0471416, "category": "cosmetics", "store_id": 290 }, "geometry": { "type": "Point", "coordinates": [ -84.0471416, 34.3583084 ] } },
{ "type": "Feature", "properties": { "name": "Fragrance Outlet", "address": "", "city": "", "state": "NC", "zip": "", "lat": 34.358973, "lon": -84.0477831, "category": "perfumery", "store_id": 291 }, "geometry": { "type": "Point", "coordinates": [ -84.047783100000018, 34.358973 ] } },
{ "type": "Feature", "properties": { "name": "Perfumes 4U", "address": "", "city": "", "state": "NC", "zip": "", "lat": 34.356255, "lon": -84.0480635, "category": "perfumery", "store_id": 292 }, "geometry": { "type": "Point", "coordinates": [ -84.0480635, 34.356255 ] } },
{ "type": "Feature", "properties": { "name": "Sephora", "address": "", "city": "", "state": "NC", "zip": "", "lat": 34.3567816, "lon": -84.0489726, "category": "cosmetics", "store_id": 293 }, "geometry": { "type": "Point", "coordinates": [ -84.0489726, 34.3567816 ] } },
{ "type": "Feature", "properties": { "name": "The Cosmetics Company Store", "address": "", "city": "", "state": "NC", "zip": "", "lat": 34.3581049, "lon": -84.0480276, "category": "cosmetics", "store_id": 294 }, "geometry": { "type": "Point", "coordinates": [ -84.0480276, 34.3581049 ] } },
{ "type": "Feature", "properties": { "name": "Bath & Body Works", "address": "", "city": "", "state": "NC", "zip": "", "lat": 33.9812249, "lon": -84.0812532, "category": "cosmetics", "store_id": 295 }, "geometry": { "type": "Point", "coordinates": [ -84.0812532, 33.9812249 ] } },
{ "type": "Feature", "properties": { "name": "Ultra Beauty", "address": "640 St Mark Ave", "city": "Selma", "state": "NC", "zip": "27576", "lat": 35.518398, "lon": -78.2772601, "category": "cosmetics", "store_id": 296 }, "geometry": { "type": "Point", "coordinates": [ -78.2772601, 35.518398 ] } },
{ "type": "Feature", "properties": { "name": "King's Beauty Supply", "address": "227 North Seven Oaks Drive", "city": "Knoxville", "state": "TN", "zip": "37922", "lat": 35.9124337, "lon": -84.1007611, "category": "beauty", "store_id": 297 }, "geometry": { "type": "Point", "coordinates": [ -84.1007611, 35.9124337 ] } },
{ "type": "Feature", "properties": { "name": "Sally Beauty", "address": "723 Leonard Avenue", "city": "Albemarle", "state": "NC", "zip": "28001", "lat": 35.3422787, "lon": -80.1754204, "category": "hairdresser_supply", "store_id": 298 }, "geometry": { "type": "Point", "coordinates": [ -80.1754204, 35.3422787 ] } },
{ "type": "Feature", "properties": { "name": "JC Mart Beauty Supply", "address": "1501 Julian R Allsbrook Highway", "city": "Roanoke Rapids", "state": "NC", "zip": "27870", "lat": 36.433388, "lon": -77.6370679, "category": "beauty", "store_id": 299 }, "geometry": { "type": "Point", "coordinates": [ -77.6370679, 36.433388 ] } },
{ "type": "Feature", "properties": { "name": "Sarahs Beauty Supply", "address": "1802 East 10th Street", "city": "Roanoke Rapids", "state": "NC", "zip": "27870", "lat": 36.4370159, "lon": -77.6443281, "category": "beauty", "store_id": 300 }, "geometry": { "type": "Point", "coordinates": [ -77.6443281, 36.4370159 ] } },
{ "type": "Feature", "properties": { "name": "Luxe Fragrance Bar", "address": "219 Southside Square", "city": "", "state": "NC", "zip": "", "lat": 36.0657612, "lon": -79.7876587, "category": "perfumery", "store_id": 301 }, "geometry": { "type": "Point", "coordinates": [ -79.7876587, 36.0657612 ] } },
{ "type": "Feature", "properties": { "name": "W1SH - One Wish Beauty", "address": "3450 Steve Reynolds Boulevard", "city": "", "state": "NC", "zip": "", "lat": 33.9509652, "lon": -84.1361111, "category": "cosmetics", "store_id": 302 }, "geometry": { "type": "Point", "coordinates": [ -84.1361111, 33.9509652 ] } },
{ "type": "Feature", "properties": { "name": "So Good Bridal & Beauty Supply", "address": "", "city": "", "state": "NC", "zip": "", "lat": 33.9518932, "lon": -84.1391493, "category": "cosmetics", "store_id": 303 }, "geometry": { "type": "Point", "coordinates": [ -84.1391493, 33.9518932 ] } },
{ "type": "Feature", "properties": { "name": "T & S Beauty Supply", "address": "102 S Sandhills Blvd", "city": "Aberdeen", "state": "NC", "zip": "28315", "lat": 35.1334245, "lon": -79.4291705, "category": "beauty", "store_id": 304 }, "geometry": { "type": "Point", "coordinates": [ -79.4291705, 35.1334245 ] } },
{ "type": "Feature", "properties": { "name": "Top Beauty Supply", "address": "", "city": "", "state": "NC", "zip": "", "lat": 33.8893317, "lon": -84.0605543, "category": "hairdresser_supply", "store_id": 305 }, "geometry": { "type": "Point", "coordinates": [ -84.0605543, 33.8893317 ] } },
{ "type": "Feature", "properties": { "name": "Beauty World", "address": "1418 Avondale Drive", "city": "Durham", "state": "NC", "zip": "27701", "lat": 36.0064128, "lon": -78.8843773, "category": "beauty", "store_id": 306 }, "geometry": { "type": "Point", "coordinates": [ -78.8843773, 36.006412799999985 ] } },
{ "type": "Feature", "properties": { "name": "Ulta Beauty", "address": "214 Forum Drive", "city": "Columbia", "state": "SC", "zip": "29229", "lat": 34.1295531, "lon": -80.8765169, "category": "beauty", "store_id": 307 }, "geometry": { "type": "Point", "coordinates": [ -80.8765169, 34.1295531 ] } },
{ "type": "Feature", "properties": { "name": "Ulta Beauty", "address": "544 John Ross Parkway", "city": "Rock Hill", "state": "SC", "zip": "29730", "lat": 34.942184, "lon": -80.9766086, "category": "beauty", "store_id": 308 }, "geometry": { "type": "Point", "coordinates": [ -80.9766086, 34.942184 ] } },
{ "type": "Feature", "properties": { "name": "Ulta Beauty", "address": "702 Cross Hill Road", "city": "Columbia", "state": "SC", "zip": "29205", "lat": 33.9931878, "lon": -80.9757698, "category": "cosmetics", "store_id": 309 }, "geometry": { "type": "Point", "coordinates": [ -80.9757698, 33.9931878 ] } },
{ "type": "Feature", "properties": { "name": "Sally Beauty", "address": "6212-108 Glenwood Avenue", "city": "", "state": "NC", "zip": "", "lat": 35.8574938, "lon": -78.7013315, "category": "hairdresser_supply", "store_id": 310 }, "geometry": { "type": "Point", "coordinates": [ -78.7013315, 35.8574938 ] } },
{ "type": "Feature", "properties": { "name": "K Discount Beauty Supply", "address": "4112 Pleasant Valley Road", "city": "", "state": "NC", "zip": "", "lat": 35.8603909, "lon": -78.7049774, "category": "hairdresser_supply", "store_id": 311 }, "geometry": { "type": "Point", "coordinates": [ -78.7049774, 35.8603909 ] } },
{ "type": "Feature", "properties": { "name": "Sally Beauty", "address": "", "city": "", "state": "NC", "zip": "", "lat": 35.7251083, "lon": -81.7040913, "category": "hairdresser_supply", "store_id": 312 }, "geometry": { "type": "Point", "coordinates": [ -81.7040913, 35.7251083 ] } },
{ "type": "Feature", "properties": { "name": "Queen Beauty Supply", "address": "60 Whiteville Town Center", "city": "Whiteville", "state": "NC", "zip": "28472", "lat": 34.3066315, "lon": -78.7189453, "category": "beauty", "store_id": 313 }, "geometry": { "type": "Point", "coordinates": [ -78.7189453, 34.3066315 ] } },
{ "type": "Feature", "properties": { "name": "Ulta Beauty", "address": "8052 Concord Mills Boulevard", "city": "Concord", "state": "NC", "zip": "28027", "lat": 35.37263, "lon": -80.7162453, "category": "beauty", "store_id": 314 }, "geometry": { "type": "Point", "coordinates": [ -80.7162453, 35.37263 ] } },
{ "type": "Feature", "properties": { "name": "Top Beauty Supply", "address": "", "city": "", "state": "NC", "zip": "", "lat": 33.9421372, "lon": -83.9824927, "category": "beauty", "store_id": 315 }, "geometry": { "type": "Point", "coordinates": [ -83.9824927, 33.9421372 ] } },
{ "type": "Feature", "properties": { "name": "SK Beauty Supply", "address": "", "city": "", "state": "NC", "zip": "", "lat": 33.8731155, "lon": -84.0134919, "category": "beauty", "store_id": 316 }, "geometry": { "type": "Point", "coordinates": [ -84.0134919, 33.8731155 ] } },
{ "type": "Feature", "properties": { "name": "Ultatan", "address": "", "city": "", "state": "NC", "zip": "", "lat": 35.444041, "lon": -80.8638799, "category": "beauty", "store_id": 317 }, "geometry": { "type": "Point", "coordinates": [ -80.8638799, 35.444041 ] } },
{ "type": "Feature", "properties": { "name": "Lawrenceville Beauty Supply", "address": "", "city": "", "state": "NC", "zip": "", "lat": 33.9583919, "lon": -83.9864591, "category": "beauty", "store_id": 318 }, "geometry": { "type": "Point", "coordinates": [ -83.9864591, 33.9583919 ] } },
{ "type": "Feature", "properties": { "name": "Ulta Beauty", "address": "2295 Market Place Boulevard", "city": "Cumming", "state": "GA", "zip": "30040", "lat": 34.1947894, "lon": -84.1287141, "category": "beauty", "store_id": 319 }, "geometry": { "type": "Point", "coordinates": [ -84.1287141, 34.1947894 ] } },
{ "type": "Feature", "properties": { "name": "Ulta Beauty", "address": "3070 Wake Forest Road", "city": "Raleigh", "state": "NC", "zip": "27609", "lat": 35.8237894, "lon": -78.6205098, "category": "beauty", "store_id": 320 }, "geometry": { "type": "Point", "coordinates": [ -78.6205098, 35.8237894 ] } },
{ "type": "Feature", "properties": { "name": "Sally Beauty", "address": "", "city": "", "state": "NC", "zip": "", "lat": 36.3430874, "lon": -82.4017032, "category": "hairdresser_supply", "store_id": 321 }, "geometry": { "type": "Point", "coordinates": [ -82.4017032, 36.3430874 ] } },
{ "type": "Feature", "properties": { "name": "Ulta Beauty", "address": "2626 East Stone Drive", "city": "Kingsport", "state": "TN", "zip": "37660", "lat": 36.5527182, "lon": -82.4923911, "category": "beauty", "store_id": 322 }, "geometry": { "type": "Point", "coordinates": [ -82.4923911, 36.552718199999987 ] } },
{ "type": "Feature", "properties": { "name": "Hair Guard Beauty Supply", "address": "4532 Fayetteville Road", "city": "Raeford", "state": "NC", "zip": "28376", "lat": 35.0055608, "lon": -79.1737299, "category": "beauty", "store_id": 323 }, "geometry": { "type": "Point", "coordinates": [ -79.1737299, 35.0055608 ] } },
{ "type": "Feature", "properties": { "name": "Sephora", "address": "3321 Pineville-Matthews Road", "city": "Charlotte", "state": "NC", "zip": "28226", "lat": 35.0966768, "lon": -80.7834637, "category": "cosmetics", "store_id": 324 }, "geometry": { "type": "Point", "coordinates": [ -80.7834637, 35.0966768 ] } },
{ "type": "Feature", "properties": { "name": "The Quill + Honey", "address": "18 South Main Street", "city": "", "state": "NC", "zip": "", "lat": 35.8267175, "lon": -82.5488112, "category": "cosmetics", "store_id": 325 }, "geometry": { "type": "Point", "coordinates": [ -82.5488112, 35.8267175 ] } },
{ "type": "Feature", "properties": { "name": "Bath & Body Works", "address": "629 River Highway", "city": "Mooresville", "state": "NC", "zip": "28117", "lat": 35.5938247, "lon": -80.8749855, "category": "cosmetics", "store_id": 326 }, "geometry": { "type": "Point", "coordinates": [ -80.8749855, 35.5938247 ] } },
{ "type": "Feature", "properties": { "name": "Merle Norman", "address": "", "city": "", "state": "NC", "zip": "", "lat": 35.6667287, "lon": -80.4703129, "category": "cosmetics", "store_id": 327 }, "geometry": { "type": "Point", "coordinates": [ -80.4703129, 35.6667287 ] } },
{ "type": "Feature", "properties": { "name": "Sally Beauty", "address": "", "city": "", "state": "NC", "zip": "", "lat": 34.6677453, "lon": -79.0003829, "category": "hairdresser_supply", "store_id": 328 }, "geometry": { "type": "Point", "coordinates": [ -79.0003829, 34.6677453 ] } },
{ "type": "Feature", "properties": { "name": "Ulta Beauty", "address": "840 Inspiration Drive", "city": "Wilmington", "state": "NC", "zip": "28405", "lat": 34.2437722, "lon": -77.830345, "category": "beauty", "store_id": 329 }, "geometry": { "type": "Point", "coordinates": [ -77.830345, 34.2437722 ] } },
{ "type": "Feature", "properties": { "name": "Ulta Beauty", "address": "609 River Highway", "city": "Mooresville", "state": "NC", "zip": "28117", "lat": 35.5938332, "lon": -80.8732049, "category": "beauty", "store_id": 330 }, "geometry": { "type": "Point", "coordinates": [ -80.8732049, 35.5938332 ] } },
{ "type": "Feature", "properties": { "name": "Perfume Gallery", "address": "", "city": "", "state": "NC", "zip": "", "lat": 36.0676926, "lon": -80.3009489, "category": "perfumery", "store_id": 331 }, "geometry": { "type": "Point", "coordinates": [ -80.3009489, 36.0676926 ] } },
{ "type": "Feature", "properties": { "name": "Bath & Body Works", "address": "", "city": "", "state": "NC", "zip": "", "lat": 36.0678894, "lon": -80.3012656, "category": "cosmetics", "store_id": 332 }, "geometry": { "type": "Point", "coordinates": [ -80.3012656, 36.0678894 ] } },
{ "type": "Feature", "properties": { "name": "Ulta Beauty", "address": "1030 Hanes Mall Boulevard", "city": "Winston-Salem", "state": "NC", "zip": "27103", "lat": 36.0687886, "lon": -80.3188326, "category": "beauty", "store_id": 333 }, "geometry": { "type": "Point", "coordinates": [ -80.3188326, 36.0687886 ] } },
{ "type": "Feature", "properties": { "name": "Ulta Beauty", "address": "916 Loganville Highway", "city": "Bethlehem", "state": "GA", "zip": "30620", "lat": 33.9423304, "lon": -83.7482327, "category": "beauty", "store_id": 334 }, "geometry": { "type": "Point", "coordinates": [ -83.7482327, 33.9423304 ] } },
{ "type": "Feature", "properties": { "name": "Merle Norman", "address": "501 North Main Street", "city": "Anderson", "state": "SC", "zip": "29625", "lat": 34.5074598, "lon": -82.6513441, "category": "cosmetics", "store_id": 335 }, "geometry": { "type": "Point", "coordinates": [ -82.6513441, 34.5074598 ] } },
{ "type": "Feature", "properties": { "name": "Ulta Beauty", "address": "103 Commons Drive", "city": "Greenwood", "state": "SC", "zip": "29649", "lat": 34.204222, "lon": -82.1903308, "category": "beauty", "store_id": 336 }, "geometry": { "type": "Point", "coordinates": [ -82.1903308, 34.204222 ] } },